{"countries":{"3":{"url":"www.parkrun.com.au","bounds":[114.613067,-43.163256,153.576356,-12.376205]},"14":{"url":"www.parkrun.ca","bounds":[-123.650306,42.990553,-63.661271,56.730253]},"23":{"url":"www.parkrun.dk","bounds":[8.442703,55.474609,12.635341,56.987144]},"30":{"url":"www.parkrun.fi","bounds":[23.759243,60.180235,25.538652,61.492554]},"31":{"url":"www.parkrun.fr","bounds":[-0.42901,43.564162,6.146281,49.44128]},"32":{"url":"www.parkrun.com.de","bounds":[6.634672,48.122967,13.726508,53.573708]},"42":{"url":"www.parkrun.ie","bounds":[-10.082041,51.551575,-6.099962,55.140535]},"44":{"url":"www.parkrun.it","bounds":[9.211192,37.621125,18.166117,45.694128]},"46":{"url":"www.parkrun.jp","bounds":[131.417682,31.908209,139.941344,36.209432]},"57":{"url":"www.parkrun.my","bounds":[101.698056,2.916852,101.733362,3.122979]},"65":{"url":"www.parkrun.co.nz","bounds":[168.356606,-46.404097,178.018082,-35.734968]},"67":{"url":"www.parkrun.no","bounds":[5.322763,58.354828,10.77791,63.430394]},"74":{"url":"www.parkrun.pl","bounds":[14.25818,49.741202,23.48152,54.598679]},"79":{"url":"www.parkrun.ru","bounds":[29.925865,45.006497,129.71437,62.035457]},"82":{"url":"www.parkrun.sg","bounds":[103.762915,1.294954,103.893129,1.360729]},"85":{"url":"www.parkrun.co.za","bounds":[14.481783,-34.589792,32.27309,-22.618415]},"88":{"url":"www.parkrun.se","bounds":[12.037793,55.60278,18.039292,59.853455]},"97":{"url":"www.parkrun.org.uk","bounds":[-7.643103,49.186471,1.747338,60.158081]},"98":{"url":"www.parkrun.us","bounds":[-122.862376,27.84707,-71.118049,47.684137]}},"events":{"type":"FeatureCollection","features":[{"id":1,"type":"Feature","geometry":{"type":"Point","coordinates":[-0.335791,51.410992]},"properties":{"eventname":"bushy","EventLongName":"Bushy parkrun","EventShortName":"Bushy Park","countrycode":97,"seriesid":1,"EventLocation":"Bushy Park, Teddington"}},{"id":2,"type":"Feature","geometry":{"type":"Point","coordinates":[-0.232215,51.442078]},"properties":{"eventname":"wimbledon","EventLongName":"Wimbledon Common parkrun","EventShortName":"Wimbledon Common","countrycode":97,"seriesid":1,"EventLocation":"Wimbledon Common"}},{"id":3,"type":"Feature","geometry":{"type":"Point","coordinates":[-0.184225,51.307648]},"properties":{"eventname":"banstead","EventLongName":"Banstead Woods parkrun","EventShortName":"Banstead Woods","countrycode":97,"seriesid":1,"EventLocation":"Banstead Woods, Coulsdon"}},{"id":4,"type":"Feature","geometry":{"type":"Point","coordinates":[-0.292886,51.451962]},"properties":{"eventname":"richmond","EventLongName":"Richmond parkrun","EventShortName":"Richmond Park","countrycode":97,"seriesid":1,"EventLocation":"Richmond Park, Richmond upon Thames"}},{"id":5,"type":"Feature","geometry":{"type":"Point","coordinates":[-1.560059,53.808582]},"properties":{"eventname":"woodhousemoor","EventLongName":"Woodhouse Moor parkrun","EventShortName":"Woodhouse Moor","countrycode":97,"seriesid":1,"EventLocation":"Woodhouse Moor, Leeds"}},{"id":6,"type":"Feature","geometry":{"type":"Point","coordinates":[-2.160702,53.374268]},"properties":{"eventname":"bramhall","EventLongName":"Bramhall parkrun","EventShortName":"Bramhall Park","countrycode":97,"seriesid":1,"EventLocation":"Bramhall Park, near Stockport"}},{"id":8,"type":"Feature","geometry":{"type":"Point","coordinates":[-0.172498,50.84214]},"properties":{"eventname":"brighton","EventLongName":"Brighton & Hove parkrun","EventShortName":"Brighton & Hove","countrycode":97,"seriesid":1,"EventLocation":"Hove Park, Brighton"}},{"id":9,"type":"Feature","geometry":{"type":"Point","coordinates":[-3.207107,51.49736]},"properties":{"eventname":"cardiff","EventLongName":"Cardiff parkrun","EventShortName":"Cardiff","countrycode":97,"seriesid":1,"EventLocation":"Cardiff Blackweir"}},{"id":10,"type":"Feature","geometry":{"type":"Point","coordinates":[-1.231788,54.564972]},"properties":{"eventname":"albert","EventLongName":"Albert parkrun, Middlesbrough","EventShortName":"Albert","countrycode":97,"seriesid":1,"EventLocation":"Albert Park, Middlesbrough"}},{"id":11,"type":"Feature","geometry":{"type":"Point","coordinates":[-1.082035,51.258831]},"properties":{"eventname":"basingstoke","EventLongName":"Basingstoke parkrun","EventShortName":"Basingstoke","countrycode":97,"seriesid":1,"EventLocation":"Basingstoke War Memorial Park"}},{"id":12,"type":"Feature","geometry":{"type":"Point","coordinates":[-4.307882,55.82992]},"properties":{"eventname":"pollok","EventLongName":"Pollok parkrun, Glasgow","EventShortName":"Pollok","countrycode":97,"seriesid":1,"EventLocation":"Pollok Park, Glasgow"}},{"id":13,"type":"Feature","geometry":{"type":"Point","coordinates":[12.575108,55.653057]},"properties":{"eventname":"amager","EventLongName":"Amager F\u00e6lled parkrun","EventShortName":"Amager F\u00e6lled","countrycode":23,"seriesid":1,"EventLocation":"Amager F\u00e6lled, K\u00f8benhavn"}},{"id":14,"type":"Feature","geometry":{"type":"Point","coordinates":[1.73069,52.567806]},"properties":{"eventname":"gorleston","EventLongName":"Gorleston Cliffs parkrun","EventShortName":"Gorleston","countrycode":97,"seriesid":1,"EventLocation":"Gorleston Cliffs Promenade"}},{"id":15,"type":"Feature","geometry":{"type":"Point","coordinates":[-0.451523,51.440762]},"properties":{"eventname":"bedfont","EventLongName":"Bedfont Lakes parkrun","EventShortName":"Bedfont Lakes","countrycode":97,"seriesid":1,"EventLocation":"Bedfont Lakes Country Park"}},{"id":18,"type":"Feature","geometry":{"type":"Point","coordinates":[-2.256263,53.531975]},"properties":{"eventname":"heaton","EventLongName":"Heaton parkrun","EventShortName":"Heaton Park","countrycode":97,"seriesid":1,"EventLocation":"Heaton Park, Manchester"}},{"id":19,"type":"Feature","geometry":{"type":"Point","coordinates":[-0.11872,51.352253]},"properties":{"eventname":"roundshaw","EventLongName":"Roundshaw Downs parkrun","EventShortName":"Roundshaw Downs","countrycode":97,"seriesid":1,"EventLocation":"Roundshaw Downs, near South Croydon"}},{"id":20,"type":"Feature","geometry":{"type":"Point","coordinates":[-0.941573,51.460384]},"properties":{"eventname":"reading","EventLongName":"Reading parkrun","EventShortName":"Reading","countrycode":97,"seriesid":1,"EventLocation":"Thames Riverside, Reading"}},{"id":21,"type":"Feature","geometry":{"type":"Point","coordinates":[-2.130945,53.408405]},"properties":{"eventname":"woodbank","EventLongName":"Woodbank parkrun","EventShortName":"Woodbank","countrycode":97,"seriesid":1,"EventLocation":"Woodbank Park, Stockport"}},{"id":22,"type":"Feature","geometry":{"type":"Point","coordinates":[-0.5476,51.540329]},"properties":{"eventname":"black-park","EventLongName":"Black Park parkrun","EventShortName":"Black Park","countrycode":97,"seriesid":1,"EventLocation":"Black Park Country Park, Slough"}},{"id":23,"type":"Feature","geometry":{"type":"Point","coordinates":[-1.409099,54.883911]},"properties":{"eventname":"silksworth","EventLongName":"Silksworth parkrun","EventShortName":"Silksworth","countrycode":97,"seriesid":1,"EventLocation":"Silksworth Sports Centre, Sunderland"}},{"id":24,"type":"Feature","geometry":{"type":"Point","coordinates":[-0.104145,51.569595]},"properties":{"eventname":"finsbury","EventLongName":"Finsbury parkrun","EventShortName":"Finsbury Park","countrycode":97,"seriesid":1,"EventLocation":"Finsbury Park"}},{"id":25,"type":"Feature","geometry":{"type":"Point","coordinates":[151.18219,-33.907658]},"properties":{"eventname":"stpeters","EventLongName":"St Peters parkrun","EventShortName":"St Peters","countrycode":3,"seriesid":1,"EventLocation":"Sydney Park, St Peters, Sydney"}},{"id":26,"type":"Feature","geometry":{"type":"Point","coordinates":[-3.291585,55.978806]},"properties":{"eventname":"edinburgh","EventLongName":"Edinburgh parkrun","EventShortName":"Edinburgh","countrycode":97,"seriesid":1,"EventLocation":"Edinburgh Promenade"}},{"id":27,"type":"Feature","geometry":{"type":"Point","coordinates":[0.022874,51.386539]},"properties":{"eventname":"bromley","EventLongName":"Bromley parkrun","EventShortName":"Bromley","countrycode":97,"seriesid":1,"EventLocation":"Norman Park, Bromley"}},{"id":28,"type":"Feature","geometry":{"type":"Point","coordinates":[-2.224689,53.446072]},"properties":{"eventname":"southmanchester","EventLongName":"South Manchester parkrun","EventShortName":"South Manchester","countrycode":97,"seriesid":1,"EventLocation":"Platt Fields Park"}},{"id":29,"type":"Feature","geometry":{"type":"Point","coordinates":[0.113254,51.455132]},"properties":{"eventname":"bexley","EventLongName":"Bexley parkrun","EventShortName":"Bexley","countrycode":97,"seriesid":1,"EventLocation":"Danson Park, Bexley"}},{"id":30,"type":"Feature","geometry":{"type":"Point","coordinates":[-1.509682,53.672488]},"properties":{"eventname":"wakefieldthornes","EventLongName":"Wakefield Thornes parkrun","EventShortName":"Wakefield Thornes","countrycode":97,"seriesid":1,"EventLocation":"Thornes Park"}},{"id":31,"type":"Feature","geometry":{"type":"Point","coordinates":[-0.342734,51.581781]},"properties":{"eventname":"harrow","EventLongName":"Harrow parkrun","EventShortName":"Harrow","countrycode":97,"seriesid":1,"EventLocation":"Harrow Recreation Ground"}},{"id":32,"type":"Feature","geometry":{"type":"Point","coordinates":[-0.080886,51.36575]},"properties":{"eventname":"lloyd-juniors","EventLongName":"Lloyd junior parkrun","EventShortName":"Lloyd juniors","countrycode":97,"seriesid":2,"EventLocation":"Lloyd Park"}},{"id":33,"type":"Feature","geometry":{"type":"Point","coordinates":[1.269228,51.14766]},"properties":{"eventname":"dover-juniors","EventLongName":"Dover junior parkrun","EventShortName":"Dover juniors","countrycode":97,"seriesid":2,"EventLocation":"Kearsney Abbey"}},{"id":34,"type":"Feature","geometry":{"type":"Point","coordinates":[-0.300708,53.764645]},"properties":{"eventname":"hull","EventLongName":"Hull parkrun","EventShortName":"Hull","countrycode":97,"seriesid":1,"EventLocation":"East Park, Hull"}},{"id":35,"type":"Feature","geometry":{"type":"Point","coordinates":[0.59606,51.549769]},"properties":{"eventname":"hadleigh","EventLongName":"Hadleigh parkrun, Essex","EventShortName":"Hadleigh","countrycode":97,"seriesid":1,"EventLocation":"Hadleigh Country Park"}},{"id":36,"type":"Feature","geometry":{"type":"Point","coordinates":[0.265978,51.623854]},"properties":{"eventname":"brentwood-juniors","EventLongName":"Brentwood junior parkrun","EventShortName":"Brentwood juniors","countrycode":97,"seriesid":2,"EventLocation":"Weald Country Park"}},{"id":37,"type":"Feature","geometry":{"type":"Point","coordinates":[-1.849369,50.851371]},"properties":{"eventname":"moorsvalley-juniors","EventLongName":"Moors Valley junior parkrun","EventShortName":"Moors Valley juniors","countrycode":97,"seriesid":2,"EventLocation":"Moors Valley Country Park and Forest"}},{"id":38,"type":"Feature","geometry":{"type":"Point","coordinates":[-1.332318,52.068807]},"properties":{"eventname":"banbury","EventLongName":"Banbury parkrun","EventShortName":"Banbury","countrycode":97,"seriesid":1,"EventLocation":"Spiceball park"}},{"id":39,"type":"Feature","geometry":{"type":"Point","coordinates":[0.290451,50.806248]},"properties":{"eventname":"eastbourne","EventLongName":"Eastbourne parkrun","EventShortName":"Eastbourne","countrycode":97,"seriesid":1,"EventLocation":"Shinewater Park, Eastbourne"}},{"id":40,"type":"Feature","geometry":{"type":"Point","coordinates":[-4.316869,55.79831]},"properties":{"eventname":"roukenglen-juniors","EventLongName":"Rouken Glen junior parkrun","EventShortName":"Rouken Glen juniors","countrycode":97,"seriesid":2,"EventLocation":"Rouken Glen Park"}},{"id":41,"type":"Feature","geometry":{"type":"Point","coordinates":[-2.086256,57.173898]},"properties":{"eventname":"aberdeen","EventLongName":"Aberdeen parkrun","EventShortName":"Aberdeen","countrycode":97,"seriesid":1,"EventLocation":"Aberdeen Beach Esplanade"}},{"id":42,"type":"Feature","geometry":{"type":"Point","coordinates":[-1.558242,53.776611]},"properties":{"eventname":"crossflatts-juniors","EventLongName":"Cross Flatts junior parkrun","EventShortName":"Cross Flatts juniors","countrycode":97,"seriesid":2,"EventLocation":"Cross Flatts Park"}},{"id":43,"type":"Feature","geometry":{"type":"Point","coordinates":[-3.245668,51.644903]},"properties":{"eventname":"penallta-juniors","EventLongName":"Penallta junior parkrun","EventShortName":"Penallta juniors","countrycode":97,"seriesid":2,"EventLocation":"Parc Penallta Country Park"}},{"id":44,"type":"Feature","geometry":{"type":"Point","coordinates":[-0.113769,51.633076]},"properties":{"eventname":"grovelands","EventLongName":"Grovelands parkrun, Enfield","EventShortName":"Grovelands","countrycode":97,"seriesid":1,"EventLocation":"Grovelands Park, Enfield"}},{"id":45,"type":"Feature","geometry":{"type":"Point","coordinates":[-0.420917,51.889853]},"properties":{"eventname":"lutonwardown","EventLongName":"Luton Wardown parkrun","EventShortName":"Luton Wardown","countrycode":97,"seriesid":1,"EventLocation":"Wardown Park"}},{"id":46,"type":"Feature","geometry":{"type":"Point","coordinates":[0.499615,51.577778]},"properties":{"eventname":"basildon","EventLongName":"Basildon parkrun","EventShortName":"Basildon","countrycode":97,"seriesid":1,"EventLocation":"Northlands Park"}},{"id":47,"type":"Feature","geometry":{"type":"Point","coordinates":[-3.881607,56.057791]},"properties":{"eventname":"plean","EventLongName":"Plean parkrun","EventShortName":"Plean","countrycode":97,"seriesid":1,"EventLocation":"Plean Country Park"}},{"id":48,"type":"Feature","geometry":{"type":"Point","coordinates":[-2.272804,51.821487]},"properties":{"eventname":"kingsway","EventLongName":"Kingsway parkrun, Gloucester","EventShortName":"Kingsway","countrycode":97,"seriesid":1,"EventLocation":"Kingsway Sports Pavillion"}},{"id":49,"type":"Feature","geometry":{"type":"Point","coordinates":[-0.724851,51.298622]},"properties":{"eventname":"frimleylodge","EventLongName":"Frimley Lodge parkrun","EventShortName":"Frimley Lodge","countrycode":97,"seriesid":1,"EventLocation":"Frimley Lodge Park"}},{"id":50,"type":"Feature","geometry":{"type":"Point","coordinates":[-2.639948,51.443592]},"properties":{"eventname":"ashton-court","EventLongName":"Ashton Court parkrun","EventShortName":"Ashton Court","countrycode":97,"seriesid":1,"EventLocation":"Ashton Court, Bristol"}},{"id":51,"type":"Feature","geometry":{"type":"Point","coordinates":[-0.025368,51.553686]},"properties":{"eventname":"hackney-marshes","EventLongName":"Hackney Marshes parkrun","EventShortName":"Hackney Marshes","countrycode":97,"seriesid":1,"EventLocation":"Hackney Marshes"}},{"id":52,"type":"Feature","geometry":{"type":"Point","coordinates":[144.96312,-37.843521]},"properties":{"eventname":"albert-melbourne","EventLongName":"Albert parkrun, Melbourne","EventShortName":"Albert Melbourne","countrycode":3,"seriesid":1,"EventLocation":"Albert Park, Melbourne, Australia"}},{"id":53,"type":"Feature","geometry":{"type":"Point","coordinates":[0.075155,51.449459]},"properties":{"eventname":"greenwich","EventLongName":"Greenwich parkrun","EventShortName":"Greenwich","countrycode":97,"seriesid":1,"EventLocation":"Avery Hill Park, Greenwich"}},{"id":54,"type":"Feature","geometry":{"type":"Point","coordinates":[-4.201763,50.535163]},"properties":{"eventname":"tamartrails","EventLongName":"Tamar Trails parkrun","EventShortName":"Tamar Trails","countrycode":97,"seriesid":1,"EventLocation":"Tamar Trails Centre"}},{"id":55,"type":"Feature","geometry":{"type":"Point","coordinates":[-0.189677,51.788927]},"properties":{"eventname":"beehive-juniors","EventLongName":"Beehive junior parkrun","EventShortName":"Beehive juniors","countrycode":97,"seriesid":2,"EventLocation":"King George V Playing Fields"}},{"id":56,"type":"Feature","geometry":{"type":"Point","coordinates":[-0.306973,51.464417]},"properties":{"eventname":"olddeerpark","EventLongName":"Old Deer Park parkrun","EventShortName":"Old Deer Park","countrycode":97,"seriesid":1,"EventLocation":"Old Deer Park, Richmond"}},{"id":57,"type":"Feature","geometry":{"type":"Point","coordinates":[-1.617994,54.983803]},"properties":{"eventname":"newcastle","EventLongName":"Newcastle parkrun","EventShortName":"Newcastle","countrycode":97,"seriesid":1,"EventLocation":"Exhibition Park, Newcastle"}},{"id":58,"type":"Feature","geometry":{"type":"Point","coordinates":[-1.09786,52.945171]},"properties":{"eventname":"colwick","EventLongName":"Colwick parkrun","EventShortName":"Colwick","countrycode":97,"seriesid":1,"EventLocation":"Colwick Country Park, Nottingham"}},{"id":59,"type":"Feature","geometry":{"type":"Point","coordinates":[-2.703902,53.751374]},"properties":{"eventname":"preston","EventLongName":"Preston parkrun","EventShortName":"Preston","countrycode":97,"seriesid":1,"EventLocation":"Avenham and Miller Parks"}},{"id":60,"type":"Feature","geometry":{"type":"Point","coordinates":[-1.407766,50.923624]},"properties":{"eventname":"southampton","EventLongName":"Southampton parkrun","EventShortName":"Southampton","countrycode":97,"seriesid":1,"EventLocation":"Southampton Common"}},{"id":61,"type":"Feature","geometry":{"type":"Point","coordinates":[-1.853621,51.561489]},"properties":{"eventname":"swindon","EventLongName":"Swindon parkrun","EventShortName":"Swindon","countrycode":97,"seriesid":1,"EventLocation":"Lydiard Park, Swindon"}},{"id":62,"type":"Feature","geometry":{"type":"Point","coordinates":[-0.509799,51.901555]},"properties":{"eventname":"houghtonhall-juniors","EventLongName":"Houghton Hall junior parkrun","EventShortName":"Houghton Hall juniors","countrycode":97,"seriesid":2,"EventLocation":"Houghton Hall Park"}},{"id":63,"type":"Feature","geometry":{"type":"Point","coordinates":[-6.193448,54.099486]},"properties":{"eventname":"rostrevor","EventLongName":"Rostrevor parkrun","EventShortName":"Rostrevor","countrycode":97,"seriesid":1,"EventLocation":"Kilbroney Park"}},{"id":64,"type":"Feature","geometry":{"type":"Point","coordinates":[-1.512766,51.221092]},"properties":{"eventname":"andover","EventLongName":"Andover parkrun","EventShortName":"Andover","countrycode":97,"seriesid":1,"EventLocation":"Charlton Lakeside, Andover"}},{"id":65,"type":"Feature","geometry":{"type":"Point","coordinates":[-1.863141,54.968071]},"properties":{"eventname":"prudhoeriverside","EventLongName":"Prudhoe Riverside parkrun","EventShortName":"Prudhoe Riverside","countrycode":97,"seriesid":1,"EventLocation":"Tyne Riverside Country Park"}},{"id":67,"type":"Feature","geometry":{"type":"Point","coordinates":[-1.465051,53.338892]},"properties":{"eventname":"graves-juniors","EventLongName":"Graves junior parkrun","EventShortName":"Graves juniors","countrycode":97,"seriesid":2,"EventLocation":"Graves Park"}},{"id":68,"type":"Feature","geometry":{"type":"Point","coordinates":[-2.605219,51.808701]},"properties":{"eventname":"forest-of-dean","EventLongName":"Forest of Dean parkrun","EventShortName":"Forest of Dean","countrycode":97,"seriesid":1,"EventLocation":"Coverham Enclosure, Forest of Dean"}},{"id":69,"type":"Feature","geometry":{"type":"Point","coordinates":[-1.524026,52.39172]},"properties":{"eventname":"coventry","EventLongName":"Coventry parkrun","EventShortName":"Coventry","countrycode":97,"seriesid":1,"EventLocation":"War Memorial Park, Coventry"}},{"id":70,"type":"Feature","geometry":{"type":"Point","coordinates":[-0.235072,52.584576]},"properties":{"eventname":"centralpark-juniors","EventLongName":"Central Park junior parkrun","EventShortName":"Central Park juniors","countrycode":97,"seriesid":2,"EventLocation":"Central Park"}},{"id":71,"type":"Feature","geometry":{"type":"Point","coordinates":[-0.562062,51.247383]},"properties":{"eventname":"guildford","EventLongName":"Guildford parkrun","EventShortName":"Guildford","countrycode":97,"seriesid":1,"EventLocation":"Stoke Park, Guildford"}},{"id":72,"type":"Feature","geometry":{"type":"Point","coordinates":[-0.168185,51.558598]},"properties":{"eventname":"hampsteadheath","EventLongName":"Hampstead Heath parkrun","EventShortName":"Hampstead Heath","countrycode":97,"seriesid":1,"EventLocation":"Hampstead Heath"}},{"id":73,"type":"Feature","geometry":{"type":"Point","coordinates":[-2.77921,51.273808]},"properties":{"eventname":"cheddar-juniors","EventLongName":"Cheddar junior parkrun","EventShortName":"Cheddar juniors","countrycode":97,"seriesid":2,"EventLocation":"Kings Fitness and Leisure"}},{"id":74,"type":"Feature","geometry":{"type":"Point","coordinates":[1.11585,52.052293]},"properties":{"eventname":"ipswich","EventLongName":"Ipswich parkrun","EventShortName":"Ipswich","countrycode":97,"seriesid":1,"EventLocation":"Chantry Park"}},{"id":75,"type":"Feature","geometry":{"type":"Point","coordinates":[-0.309516,51.426567]},"properties":{"eventname":"kingston","EventLongName":"Kingston parkrun","EventShortName":"Kingston","countrycode":97,"seriesid":1,"EventLocation":"Kingston Riverside"}},{"id":76,"type":"Feature","geometry":{"type":"Point","coordinates":[-0.105464,51.452538]},"properties":{"eventname":"brockwell","EventLongName":"Brockwell parkrun, Herne Hill","EventShortName":"Brockwell","countrycode":97,"seriesid":1,"EventLocation":"Brockwell Park, Herne Hill"}},{"id":77,"type":"Feature","geometry":{"type":"Point","coordinates":[-1.504655,52.28714]},"properties":{"eventname":"leamington","EventLongName":"Leamington parkrun","EventShortName":"Leamington","countrycode":97,"seriesid":1,"EventLocation":"Newbold Comyn, Leamington"}},{"id":78,"type":"Feature","geometry":{"type":"Point","coordinates":[-1.99542,52.73744]},"properties":{"eventname":"cannockchase","EventLongName":"Cannock Chase parkrun","EventShortName":"Cannock Chase","countrycode":97,"seriesid":1,"EventLocation":"Cannock Chase"}},{"id":79,"type":"Feature","geometry":{"type":"Point","coordinates":[0.507689,51.29641]},"properties":{"eventname":"maidstone","EventLongName":"Maidstone parkrun","EventShortName":"Maidstone","countrycode":97,"seriesid":1,"EventLocation":"River Medway"}},{"id":80,"type":"Feature","geometry":{"type":"Point","coordinates":[-5.870456,54.609998]},"properties":{"eventname":"belfastvictoria-juniors","EventLongName":"Belfast Victoria junior parkrun","EventShortName":"Belfast Victoria juniors","countrycode":97,"seriesid":2,"EventLocation":"Victoria Park, Belfast"}},{"id":81,"type":"Feature","geometry":{"type":"Point","coordinates":[-1.262419,51.790901]},"properties":{"eventname":"oxford","EventLongName":"Oxford parkrun","EventShortName":"Oxford","countrycode":97,"seriesid":1,"EventLocation":"Cutteslowe and Sunnymead Park, Oxford"}},{"id":82,"type":"Feature","geometry":{"type":"Point","coordinates":[-4.079618,50.409091]},"properties":{"eventname":"plymvalley","EventLongName":"Plymvalley parkrun","EventShortName":"Plymvalley","countrycode":97,"seriesid":1,"EventLocation":"Plymbridge Woods"}},{"id":83,"type":"Feature","geometry":{"type":"Point","coordinates":[-5.02826,50.217331]},"properties":{"eventname":"trelissick","EventLongName":"Trelissick parkrun","EventShortName":"Trelissick","countrycode":97,"seriesid":1,"EventLocation":"Kilbroney Park"}},{"id":84,"type":"Feature","geometry":{"type":"Point","coordinates":[-2.993317,51.588559]},"properties":{"eventname":"riverfront","EventLongName":"Riverfront parkrun","EventShortName":"Riverfront","countrycode":97,"seriesid":1,"EventLocation":"The Riverfront"}},{"id":86,"type":"Feature","geometry":{"type":"Point","coordinates":[-1.505814,53.368446]},"properties":{"eventname":"sheffieldhallam","EventLongName":"Sheffield Hallam parkrun","EventShortName":"Sheffield Hallam","countrycode":97,"seriesid":1,"EventLocation":"Endcliffe Park, Sheffield"}},{"id":87,"type":"Feature","geometry":{"type":"Point","coordinates":[-1.295183,51.739341]},"properties":{"eventname":"harcourthill-juniors","EventLongName":"Harcourt Hill junior parkrun","EventShortName":"Harcourt Hill juniors","countrycode":97,"seriesid":2,"EventLocation":"Harcourt Hill Campus"}},{"id":89,"type":"Feature","geometry":{"type":"Point","coordinates":[-2.376734,53.781711]},"properties":{"eventname":"hyndburn","EventLongName":"Hyndburn parkrun","EventShortName":"Hyndburn","countrycode":97,"seriesid":1,"EventLocation":"Wilson Playing Fields"}},{"id":90,"type":"Feature","geometry":{"type":"Point","coordinates":[-3.135084,54.602628]},"properties":{"eventname":"keswick-juniors","EventLongName":"Keswick junior parkrun","EventShortName":"Keswick juniors","countrycode":97,"seriesid":2,"EventLocation":"Upper Fitz Park"}},{"id":91,"type":"Feature","geometry":{"type":"Point","coordinates":[-1.081316,50.778853]},"properties":{"eventname":"southsea","EventLongName":"Southsea parkrun","EventShortName":"Southsea","countrycode":97,"seriesid":1,"EventLocation":"Southsea Esplanade"}},{"id":92,"type":"Feature","geometry":{"type":"Point","coordinates":[-3.184283,55.940327]},"properties":{"eventname":"themeadows-juniors","EventLongName":"The Meadows junior parkrun","EventShortName":"The Meadows juniors","countrycode":97,"seriesid":2,"EventLocation":"The Meadows"}},{"id":93,"type":"Feature","geometry":{"type":"Point","coordinates":[-0.449781,52.124298]},"properties":{"eventname":"bedford-juniors","EventLongName":"Bedford junior parkrun","EventShortName":"Bedford juniors","countrycode":97,"seriesid":2,"EventLocation":"Jubilee Park"}},{"id":94,"type":"Feature","geometry":{"type":"Point","coordinates":[-0.21127,51.534733]},"properties":{"eventname":"queensparklondon-juniors","EventLongName":"Queen\u2019s Park junior parkrun, London","EventShortName":"Queen\u2019s Park juniors, London","countrycode":97,"seriesid":2,"EventLocation":"Queen\u2019s Park"}},{"id":95,"type":"Feature","geometry":{"type":"Point","coordinates":[-0.355371,51.75193]},"properties":{"eventname":"stalbans","EventLongName":"St Albans parkrun","EventShortName":"St Albans","countrycode":97,"seriesid":1,"EventLocation":"Verulam Park, St Albans"}},{"id":96,"type":"Feature","geometry":{"type":"Point","coordinates":[-1.101379,53.935375]},"properties":{"eventname":"york","EventLongName":"York parkrun","EventShortName":"York","countrycode":97,"seriesid":1,"EventLocation":"York Racecourse"}},{"id":97,"type":"Feature","geometry":{"type":"Point","coordinates":[-0.975565,50.875771]},"properties":{"eventname":"havant","EventLongName":"Havant parkrun","EventShortName":"Havant","countrycode":97,"seriesid":1,"EventLocation":"Staunton Country Park"}},{"id":98,"type":"Feature","geometry":{"type":"Point","coordinates":[-1.238464,52.37318]},"properties":{"eventname":"rugby","EventLongName":"Rugby parkrun","EventShortName":"Rugby","countrycode":97,"seriesid":1,"EventLocation":"Whinfield Recreation Ground"}},{"id":99,"type":"Feature","geometry":{"type":"Point","coordinates":[-0.006042,51.417952]},"properties":{"eventname":"beckenhamplace","EventLongName":"Beckenham Place parkrun","EventShortName":"Beckenham Place","countrycode":97,"seriesid":1,"EventLocation":"Beckenham Place Park"}},{"id":100,"type":"Feature","geometry":{"type":"Point","coordinates":[-1.247926,50.885632]},"properties":{"eventname":"whiteley","EventLongName":"Whiteley parkrun","EventShortName":"Whiteley","countrycode":97,"seriesid":1,"EventLocation":"Whiteley Meadowside"}},{"id":101,"type":"Feature","geometry":{"type":"Point","coordinates":[1.255682,52.620422]},"properties":{"eventname":"norwich","EventLongName":"Norwich parkrun","EventShortName":"Norwich","countrycode":97,"seriesid":1,"EventLocation":"Eaton Park, Norwich"}},{"id":102,"type":"Feature","geometry":{"type":"Point","coordinates":[-3.564297,50.423441]},"properties":{"eventname":"torbayvelopark","EventLongName":"Torbay Velopark parkrun","EventShortName":"Torbay Velopark","countrycode":97,"seriesid":1,"EventLocation":"Torbay Velopark"}},{"id":103,"type":"Feature","geometry":{"type":"Point","coordinates":[0.864218,51.14347]},"properties":{"eventname":"ashford","EventLongName":"Ashford parkrun","EventShortName":"Ashford","countrycode":97,"seriesid":1,"EventLocation":"Victoria Park"}},{"id":104,"type":"Feature","geometry":{"type":"Point","coordinates":[-1.178681,52.626129]},"properties":{"eventname":"braunstone","EventLongName":"Braunstone parkrun","EventShortName":"Braunstone","countrycode":97,"seriesid":1,"EventLocation":"Braunstone, Leicester"}},{"id":105,"type":"Feature","geometry":{"type":"Point","coordinates":[-2.776838,53.550551]},"properties":{"eventname":"skelmersdale-juniors","EventLongName":"Skelmersdale junior parkrun","EventShortName":"Skelmersdale juniors","countrycode":97,"seriesid":2,"EventLocation":"Nye Bevan Swimming Pool"}},{"id":106,"type":"Feature","geometry":{"type":"Point","coordinates":[-2.104118,53.534187]},"properties":{"eventname":"oldham","EventLongName":"Oldham parkrun","EventShortName":"Oldham","countrycode":97,"seriesid":1,"EventLocation":"Alexandra Park, Oldham"}},{"id":107,"type":"Feature","geometry":{"type":"Point","coordinates":[0.066415,51.638607]},"properties":{"eventname":"rodingvalley","EventLongName":"Roding Valley parkrun","EventShortName":"Roding Valley","countrycode":97,"seriesid":1,"EventLocation":"Roding Valley Recreation Ground"}},{"id":108,"type":"Feature","geometry":{"type":"Point","coordinates":[-0.459366,52.148125]},"properties":{"eventname":"bedford","EventLongName":"Bedford parkrun","EventShortName":"Bedford","countrycode":97,"seriesid":1,"EventLocation":"Bedford Park, Bedford"}},{"id":109,"type":"Feature","geometry":{"type":"Point","coordinates":[-3.26996,54.21399]},"properties":{"eventname":"millom","EventLongName":"Millom parkrun","EventShortName":"Millom","countrycode":97,"seriesid":1,"EventLocation":"Millom Network Centre"}},{"id":110,"type":"Feature","geometry":{"type":"Point","coordinates":[-4.206204,51.68508]},"properties":{"eventname":"llanellicoast","EventLongName":"Llanelli Coast parkrun","EventShortName":"Llanelli Coast","countrycode":97,"seriesid":1,"EventLocation":"King George V Playing Fields"}},{"id":111,"type":"Feature","geometry":{"type":"Point","coordinates":[-2.134568,52.490027]},"properties":{"eventname":"dudley","EventLongName":"Dudley parkrun","EventShortName":"Dudley","countrycode":97,"seriesid":1,"EventLocation":"The Dell Stadium"}},{"id":112,"type":"Feature","geometry":{"type":"Point","coordinates":[-1.171188,53.022132]},"properties":{"eventname":"bestwoodvillage","EventLongName":"Bestwood Village parkrun","EventShortName":"Bestwood Village","countrycode":97,"seriesid":1,"EventLocation":"Bestwood Country Park"}},{"id":113,"type":"Feature","geometry":{"type":"Point","coordinates":[-0.722984,52.05011]},"properties":{"eventname":"miltonkeynes","EventLongName":"Milton Keynes parkrun","EventShortName":"Milton Keynes","countrycode":97,"seriesid":1,"EventLocation":"Willen Lake, Milton Keynes"}},{"id":114,"type":"Feature","geometry":{"type":"Point","coordinates":[-2.076554,53.45713]},"properties":{"eventname":"hyde","EventLongName":"Hyde parkrun","EventShortName":"Hyde","countrycode":97,"seriesid":1,"EventLocation":"Hyde Park"}},{"id":115,"type":"Feature","geometry":{"type":"Point","coordinates":[-0.693819,50.792765]},"properties":{"eventname":"bognorregis-juniors","EventLongName":"Bognor Regis junior parkrun","EventShortName":"Bognor Regis juniors","countrycode":97,"seriesid":2,"EventLocation":"Arena Sports Centre"}},{"id":116,"type":"Feature","geometry":{"type":"Point","coordinates":[-2.681623,53.337865]},"properties":{"eventname":"phoenix","EventLongName":"Phoenix parkrun","EventShortName":"Phoenix","countrycode":97,"seriesid":1,"EventLocation":"Phoenix Park"}},{"id":117,"type":"Feature","geometry":{"type":"Point","coordinates":[-0.742427,51.626131]},"properties":{"eventname":"wycomberye-juniors","EventLongName":"Wycombe Rye junior parkrun","EventShortName":"Wycombe Rye juniors","countrycode":97,"seriesid":2,"EventLocation":"Wycombe Rye"}},{"id":118,"type":"Feature","geometry":{"type":"Point","coordinates":[-2.811654,53.411116]},"properties":{"eventname":"knowsley","EventLongName":"Knowsley parkrun","EventShortName":"Knowsley","countrycode":97,"seriesid":1,"EventLocation":"Stadt Moers Park"}},{"id":119,"type":"Feature","geometry":{"type":"Point","coordinates":[-2.750059,52.704425]},"properties":{"eventname":"shrewsbury-juniors","EventLongName":"Shrewsbury junior parkrun","EventShortName":"Shrewsbury juniors","countrycode":97,"seriesid":2,"EventLocation":"Quarry Park"}},{"id":120,"type":"Feature","geometry":{"type":"Point","coordinates":[-3.319012,52.514658]},"properties":{"eventname":"newtown","EventLongName":"Newtown parkrun","EventShortName":"Newtown","countrycode":97,"seriesid":1,"EventLocation":"Dolerw Park Bridge"}},{"id":121,"type":"Feature","geometry":{"type":"Point","coordinates":[-2.338425,51.364717]},"properties":{"eventname":"bathskyline","EventLongName":"Bath Skyline parkrun","EventShortName":"Bath Skyline","countrycode":97,"seriesid":1,"EventLocation":"Bath"}},{"id":122,"type":"Feature","geometry":{"type":"Point","coordinates":[-1.849419,50.85124]},"properties":{"eventname":"moorsvalley","EventLongName":"Moors Valley parkrun","EventShortName":"Moors Valley","countrycode":97,"seriesid":1,"EventLocation":"Moors Valley Country Park and Forest"}},{"id":123,"type":"Feature","geometry":{"type":"Point","coordinates":[-2.376181,51.363164]},"properties":{"eventname":"bathodddown-juniors","EventLongName":"Bath Odd Down junior parkrun","EventShortName":"Bath Odd Down juniors","countrycode":97,"seriesid":2,"EventLocation":"Odd Down Sports Ground"}},{"id":124,"type":"Feature","geometry":{"type":"Point","coordinates":[-1.359978,53.008339]},"properties":{"eventname":"shipleycountry","EventLongName":"Shipley Country parkrun","EventShortName":"Shipley Country","countrycode":97,"seriesid":1,"EventLocation":"Shipley Country Park"}},{"id":125,"type":"Feature","geometry":{"type":"Point","coordinates":[-0.47589,51.633087]},"properties":{"eventname":"rickmansworth","EventLongName":"Rickmansworth parkrun","EventShortName":"Rickmansworth","countrycode":97,"seriesid":1,"EventLocation":"Rickmansworth Aquadrome"}},{"id":126,"type":"Feature","geometry":{"type":"Point","coordinates":[-0.102884,51.546959]},"properties":{"eventname":"highburyfields","EventLongName":"Highbury Fields parkrun","EventShortName":"Highbury Fields","countrycode":97,"seriesid":1,"EventLocation":"Highbury Fields, Highbury"}},{"id":127,"type":"Feature","geometry":{"type":"Point","coordinates":[-1.873871,53.731746]},"properties":{"eventname":"halifax","EventLongName":"Halifax parkrun","EventShortName":"Halifax","countrycode":97,"seriesid":1,"EventLocation":"Shroggs Park"}},{"id":128,"type":"Feature","geometry":{"type":"Point","coordinates":[0.161906,52.236675]},"properties":{"eventname":"cambridge","EventLongName":"Cambridge parkrun","EventShortName":"Cambridge","countrycode":97,"seriesid":1,"EventLocation":"Milton Country Park, Cambridge"}},{"id":129,"type":"Feature","geometry":{"type":"Point","coordinates":[-2.554961,51.476132]},"properties":{"eventname":"eastville-juniors","EventLongName":"Eastville junior parkrun","EventShortName":"Eastville juniors","countrycode":97,"seriesid":2,"EventLocation":"Eastville Park"}},{"id":131,"type":"Feature","geometry":{"type":"Point","coordinates":[-1.775102,53.814575]},"properties":{"eventname":"bradford","EventLongName":"Bradford parkrun","EventShortName":"Bradford","countrycode":97,"seriesid":1,"EventLocation":"Lister Park, Bradford"}},{"id":132,"type":"Feature","geometry":{"type":"Point","coordinates":[1.057002,51.299468]},"properties":{"eventname":"canterbury","EventLongName":"Canterbury parkrun","EventShortName":"Canterbury","countrycode":97,"seriesid":1,"EventLocation":"The Pavillion"}},{"id":133,"type":"Feature","geometry":{"type":"Point","coordinates":[-0.231078,51.356926]},"properties":{"eventname":"nonsuch","EventLongName":"Nonsuch parkrun","EventShortName":"Nonsuch","countrycode":97,"seriesid":1,"EventLocation":"Nonsuch Park, Cheam"}},{"id":134,"type":"Feature","geometry":{"type":"Point","coordinates":[-1.504812,51.220901]},"properties":{"eventname":"andover-juniors","EventLongName":"Andover junior parkrun","EventShortName":"Andover juniors","countrycode":97,"seriesid":2,"EventLocation":"Charlton Sports Fields"}},{"id":135,"type":"Feature","geometry":{"type":"Point","coordinates":[-0.350722,51.489405]},"properties":{"eventname":"osterley-juniors","EventLongName":"Osterley junior parkrun","EventShortName":"Osterley juniors","countrycode":97,"seriesid":2,"EventLocation":"Osterley Park"}},{"id":136,"type":"Feature","geometry":{"type":"Point","coordinates":[-3.787224,51.662428]},"properties":{"eventname":"gnoll-juniors","EventLongName":"Gnoll junior parkrun","EventShortName":"Gnoll juniors","countrycode":97,"seriesid":2,"EventLocation":"Gnoll Estate Country Park"}},{"id":137,"type":"Feature","geometry":{"type":"Point","coordinates":[-2.744088,53.46322]},"properties":{"eventname":"sthelens","EventLongName":"St Helens parkrun","EventShortName":"St Helens","countrycode":97,"seriesid":1,"EventLocation":"Victoria Park"}},{"id":138,"type":"Feature","geometry":{"type":"Point","coordinates":[0.284851,51.133614]},"properties":{"eventname":"royaltunbridgewells","EventLongName":"Royal Tunbridge Wells parkrun","EventShortName":"Royal Tunbridge Wells","countrycode":97,"seriesid":1,"EventLocation":"Dunorlan Park"}},{"id":140,"type":"Feature","geometry":{"type":"Point","coordinates":[-2.542461,51.187513]},"properties":{"eventname":"sheptonmallet","EventLongName":"Shepton Mallet parkrun","EventShortName":"Shepton Mallet","countrycode":97,"seriesid":1,"EventLocation":"Collett Park"}},{"id":141,"type":"Feature","geometry":{"type":"Point","coordinates":[-2.730313,53.37434]},"properties":{"eventname":"widnes-juniors","EventLongName":"Widnes junior parkrun","EventShortName":"Widnes juniors","countrycode":97,"seriesid":2,"EventLocation":"Victoria Park"}},{"id":142,"type":"Feature","geometry":{"type":"Point","coordinates":[-0.488839,51.399461]},"properties":{"eventname":"laleham-juniors","EventLongName":"Laleham junior parkrun","EventShortName":"Laleham juniors","countrycode":97,"seriesid":2,"EventLocation":"Thames Side"}},{"id":143,"type":"Feature","geometry":{"type":"Point","coordinates":[-1.374032,50.971433]},"properties":{"eventname":"eastleigh","EventLongName":"Eastleigh parkrun","EventShortName":"Eastleigh","countrycode":97,"seriesid":1,"EventLocation":"Fleming Park Old Golf Course, Eastleigh"}},{"id":144,"type":"Feature","geometry":{"type":"Point","coordinates":[-1.244316,54.526005]},"properties":{"eventname":"hemlingtonlake-juniors","EventLongName":"Hemlington Lake junior parkrun","EventShortName":"Hemlington Lake juniors","countrycode":97,"seriesid":2,"EventLocation":"Hemlington Lake"}},{"id":145,"type":"Feature","geometry":{"type":"Point","coordinates":[-1.634046,53.81364]},"properties":{"eventname":"bramley-juniors","EventLongName":"Bramley junior parkrun","EventShortName":"Bramley juniors","countrycode":97,"seriesid":2,"EventLocation":"Bramley Park"}},{"id":146,"type":"Feature","geometry":{"type":"Point","coordinates":[9.654837,56.987144]},"properties":{"eventname":"nibe","EventLongName":"Nibe parkrun","EventShortName":"Nibe","countrycode":23,"seriesid":1,"EventLocation":"Nibe, Denmark"}},{"id":147,"type":"Feature","geometry":{"type":"Point","coordinates":[-2.219036,53.777385]},"properties":{"eventname":"burnley-juniors","EventLongName":"Burnley junior parkrun","EventShortName":"Burnley juniors","countrycode":97,"seriesid":2,"EventLocation":"Towneley Park"}},{"id":148,"type":"Feature","geometry":{"type":"Point","coordinates":[-0.038556,52.990156]},"properties":{"eventname":"boston","EventLongName":"Boston parkrun","EventShortName":"Boston","countrycode":97,"seriesid":1,"EventLocation":"Witham Way Country Park"}},{"id":149,"type":"Feature","geometry":{"type":"Point","coordinates":[-0.560904,53.208848]},"properties":{"eventname":"lincoln","EventLongName":"Lincoln parkrun","EventShortName":"Lincoln","countrycode":97,"seriesid":1,"EventLocation":"Boultham Park"}},{"id":150,"type":"Feature","geometry":{"type":"Point","coordinates":[-2.006525,52.625246]},"properties":{"eventname":"bloxwich-juniors","EventLongName":"Bloxwich junior parkrun","EventShortName":"Bloxwich juniors","countrycode":97,"seriesid":2,"EventLocation":"King George V Memorial Playing Fields"}},{"id":151,"type":"Feature","geometry":{"type":"Point","coordinates":[-1.325741,53.697226]},"properties":{"eventname":"pontefract","EventLongName":"Pontefract parkrun","EventShortName":"Pontefract","countrycode":97,"seriesid":1,"EventLocation":"Pontefract Racecourse"}},{"id":152,"type":"Feature","geometry":{"type":"Point","coordinates":[-1.778156,53.706086]},"properties":{"eventname":"brighouse","EventLongName":"Brighouse parkrun","EventShortName":"Brighouse","countrycode":97,"seriesid":1,"EventLocation":"Wellholme Park"}},{"id":153,"type":"Feature","geometry":{"type":"Point","coordinates":[-1.639681,52.754526]},"properties":{"eventname":"rosliston","EventLongName":"Rosliston parkrun","EventShortName":"Rosliston","countrycode":97,"seriesid":1,"EventLocation":"Rosliston Forestry Centre"}},{"id":154,"type":"Feature","geometry":{"type":"Point","coordinates":[-0.065703,51.419846]},"properties":{"eventname":"crystalpalace","EventLongName":"Crystal Palace parkrun","EventShortName":"Crystal Palace","countrycode":97,"seriesid":1,"EventLocation":"Crystal Palace Park"}},{"id":155,"type":"Feature","geometry":{"type":"Point","coordinates":[-2.963455,54.886025]},"properties":{"eventname":"carlisle","EventLongName":"Carlisle parkrun","EventShortName":"Carlisle","countrycode":97,"seriesid":1,"EventLocation":"Chances Park"}},{"id":156,"type":"Feature","geometry":{"type":"Point","coordinates":[-1.448736,55.048875]},"properties":{"eventname":"whitleybay","EventLongName":"Whitley Bay parkrun","EventShortName":"Whitley Bay","countrycode":97,"seriesid":1,"EventLocation":"Whitley Bay Links Common"}},{"id":158,"type":"Feature","geometry":{"type":"Point","coordinates":[-3.818635,57.205275]},"properties":{"eventname":"aviemore","EventLongName":"Aviemore parkrun","EventShortName":"Aviemore","countrycode":97,"seriesid":1,"EventLocation":"Aviemore"}},{"id":159,"type":"Feature","geometry":{"type":"Point","coordinates":[-4.031425,55.789631]},"properties":{"eventname":"strathclyde","EventLongName":"Strathclyde parkrun","EventShortName":"Strathclyde","countrycode":97,"seriesid":1,"EventLocation":"Strathclyde Country Park"}},{"id":160,"type":"Feature","geometry":{"type":"Point","coordinates":[-3.030896,56.483681]},"properties":{"eventname":"camperdown","EventLongName":"Camperdown parkrun, Dundee","EventShortName":"Camperdown","countrycode":97,"seriesid":1,"EventLocation":"Camperdown Country Park"}},{"id":161,"type":"Feature","geometry":{"type":"Point","coordinates":[-3.469591,51.207524]},"properties":{"eventname":"minehead","EventLongName":"Minehead parkrun","EventShortName":"Minehead","countrycode":97,"seriesid":1,"EventLocation":"Minehead"}},{"id":162,"type":"Feature","geometry":{"type":"Point","coordinates":[12.568917,55.701775]},"properties":{"eventname":"faelledparken","EventLongName":"F\u00e6lledparken parkrun","EventShortName":"F\u00e6lledparken","countrycode":23,"seriesid":1,"EventLocation":"F\u00e6lledparken p\u00e5 \u00d8sterbro, K\u00f8benhavn"}},{"id":163,"type":"Feature","geometry":{"type":"Point","coordinates":[-2.394122,53.870606]},"properties":{"eventname":"clitheroecastle-juniors","EventLongName":"Clitheroe Castle junior parkrun","EventShortName":"Clitheroe Castle juniors","countrycode":97,"seriesid":2,"EventLocation":"Clitheroe Castle Gardens"}},{"id":164,"type":"Feature","geometry":{"type":"Point","coordinates":[-1.910333,52.307848]},"properties":{"eventname":"arrowvalley","EventLongName":"Arrow Valley parkrun","EventShortName":"Arrow Valley","countrycode":97,"seriesid":1,"EventLocation":"Arrow Valley Country Park"}},{"id":165,"type":"Feature","geometry":{"type":"Point","coordinates":[-5.942613,54.619299]},"properties":{"eventname":"waterworks","EventLongName":"Waterworks parkrun, Belfast","EventShortName":"Waterworks","countrycode":97,"seriesid":1,"EventLocation":"Waterworks, North Belfast"}},{"id":166,"type":"Feature","geometry":{"type":"Point","coordinates":[-77.063956,38.89638]},"properties":{"eventname":"rooseveltislanddc","EventLongName":"Roosevelt Island DC parkrun","EventShortName":"Roosevelt Island DC","countrycode":98,"seriesid":1,"EventLocation":"Roosevelt Island DC"}},{"id":167,"type":"Feature","geometry":{"type":"Point","coordinates":[-0.060373,51.542178]},"properties":{"eventname":"londonfields-juniors","EventLongName":"London Fields junior parkrun","EventShortName":"London Fields juniors","countrycode":97,"seriesid":2,"EventLocation":"London Fields West Side"}},{"id":169,"type":"Feature","geometry":{"type":"Point","coordinates":[10.141282,56.165699]},"properties":{"eventname":"brabrand","EventLongName":"Brabrand parkrun","EventShortName":"Brabrand","countrycode":23,"seriesid":1,"EventLocation":"Hasle Bakker"}},{"id":170,"type":"Feature","geometry":{"type":"Point","coordinates":[0.098433,51.77798]},"properties":{"eventname":"harlow-juniors","EventLongName":"Harlow junior parkrun","EventShortName":"Harlow juniors","countrycode":97,"seriesid":2,"EventLocation":"Harlow Town Park"}},{"id":171,"type":"Feature","geometry":{"type":"Point","coordinates":[0.012418,50.794092]},"properties":{"eventname":"peacehaven","EventLongName":"Peacehaven parkrun","EventShortName":"Peacehaven","countrycode":97,"seriesid":1,"EventLocation":"Centenary Park"}},{"id":172,"type":"Feature","geometry":{"type":"Point","coordinates":[-1.832732,50.73362]},"properties":{"eventname":"bournemouth","EventLongName":"Bournemouth parkrun","EventShortName":"Bournemouth","countrycode":97,"seriesid":1,"EventLocation":"Kings Park Athletic Stadium"}},{"id":173,"type":"Feature","geometry":{"type":"Point","coordinates":[8.442703,55.482349]},"properties":{"eventname":"esbjerg","EventLongName":"Esbjerg parkrun","EventShortName":"Esbjerg","countrycode":23,"seriesid":1,"EventLocation":"Vognsb\u00f8lparken"}},{"id":174,"type":"Feature","geometry":{"type":"Point","coordinates":[-1.183844,53.174034]},"properties":{"eventname":"mansfield","EventLongName":"Mansfield parkrun","EventShortName":"Mansfield","countrycode":97,"seriesid":1,"EventLocation":"Mansfield"}},{"id":175,"type":"Feature","geometry":{"type":"Point","coordinates":[-0.662005,51.914155]},"properties":{"eventname":"leightonbuzzard-juniors","EventLongName":"Leighton Buzzard junior parkrun","EventShortName":"Leighton Buzzard juniors","countrycode":97,"seriesid":2,"EventLocation":"Parson\u2019s Close Recreation Ground"}},{"id":176,"type":"Feature","geometry":{"type":"Point","coordinates":[-1.764593,52.406754]},"properties":{"eventname":"brueton","EventLongName":"Brueton parkrun","EventShortName":"Brueton","countrycode":97,"seriesid":1,"EventLocation":"Brueton Park, Solihull"}},{"id":177,"type":"Feature","geometry":{"type":"Point","coordinates":[-4.669662,55.643935]},"properties":{"eventname":"eglinton","EventLongName":"Eglinton parkrun","EventShortName":"Eglinton","countrycode":97,"seriesid":1,"EventLocation":"Eglinton Country Park"}},{"id":178,"type":"Feature","geometry":{"type":"Point","coordinates":[-6.693934,53.661214]},"properties":{"eventname":"navan","EventLongName":"Navan parkrun","EventShortName":"Navan","countrycode":42,"seriesid":1,"EventLocation":"Blackwater Park"}},{"id":179,"type":"Feature","geometry":{"type":"Point","coordinates":[1.37197,51.383375]},"properties":{"eventname":"margate-juniors","EventLongName":"Margate junior parkrun","EventShortName":"Margate juniors","countrycode":97,"seriesid":2,"EventLocation":"Hartsdown Park"}},{"id":180,"type":"Feature","geometry":{"type":"Point","coordinates":[0.011761,50.794091]},"properties":{"eventname":"peacehaven-juniors","EventLongName":"Peacehaven junior parkrun","EventShortName":"Peacehaven juniors","countrycode":97,"seriesid":2,"EventLocation":"Centenary Park"}},{"id":181,"type":"Feature","geometry":{"type":"Point","coordinates":[-0.884445,52.248143]},"properties":{"eventname":"northampton","EventLongName":"Northampton parkrun","EventShortName":"Northampton","countrycode":97,"seriesid":1,"EventLocation":"Northampton Racecourse"}},{"id":182,"type":"Feature","geometry":{"type":"Point","coordinates":[-1.504769,52.935408]},"properties":{"eventname":"markeaton","EventLongName":"Markeaton parkrun","EventShortName":"Markeaton","countrycode":97,"seriesid":1,"EventLocation":"Markeaton"}},{"id":183,"type":"Feature","geometry":{"type":"Point","coordinates":[0.07198,51.56749]},"properties":{"eventname":"valentines","EventLongName":"Valentines parkrun","EventShortName":"Valentines","countrycode":97,"seriesid":1,"EventLocation":"Valentines Park, Redbridge"}},{"id":184,"type":"Feature","geometry":{"type":"Point","coordinates":[-0.153744,51.637718]},"properties":{"eventname":"oak-hill","EventLongName":"Oak Hill parkrun","EventShortName":"Oak Hill","countrycode":97,"seriesid":1,"EventLocation":"Oak Hill Park, East Barnet"}},{"id":185,"type":"Feature","geometry":{"type":"Point","coordinates":[-4.767348,55.956525]},"properties":{"eventname":"greenock","EventLongName":"Greenock parkrun","EventShortName":"Greenock","countrycode":97,"seriesid":1,"EventLocation":"The Esplanade"}},{"id":186,"type":"Feature","geometry":{"type":"Point","coordinates":[-2.699084,53.753281]},"properties":{"eventname":"avenhampark-juniors","EventLongName":"Avenham Park junior parkrun","EventShortName":"Avenham Park juniors","countrycode":97,"seriesid":2,"EventLocation":"Avenham and Miller Park"}},{"id":187,"type":"Feature","geometry":{"type":"Point","coordinates":[-2.215383,53.601254]},"properties":{"eventname":"queensparkrochdale-juniors","EventLongName":"Queen\u2019s Park junior parkrun, Rochdale","EventShortName":"Queen\u2019s Park juniors, Rochdale","countrycode":97,"seriesid":2,"EventLocation":"Queen\u2019s Park"}},{"id":188,"type":"Feature","geometry":{"type":"Point","coordinates":[0.902724,51.89167]},"properties":{"eventname":"colchestercastle","EventLongName":"Colchester Castle parkrun","EventShortName":"Colchester Castle","countrycode":97,"seriesid":1,"EventLocation":"Castle Park"}},{"id":189,"type":"Feature","geometry":{"type":"Point","coordinates":[-1.89997,52.452637]},"properties":{"eventname":"cannon-hill","EventLongName":"Cannon Hill parkrun, Birmingham","EventShortName":"Cannon Hill","countrycode":97,"seriesid":1,"EventLocation":"Cannon Hill, Birmingham"}},{"id":190,"type":"Feature","geometry":{"type":"Point","coordinates":[-0.079973,51.364807]},"properties":{"eventname":"lloyd","EventLongName":"Lloyd parkrun, Croydon","EventShortName":"Lloyd","countrycode":97,"seriesid":1,"EventLocation":"Lloyd Park, Croydon"}},{"id":191,"type":"Feature","geometry":{"type":"Point","coordinates":[-0.292253,51.499405]},"properties":{"eventname":"gunnersbury","EventLongName":"Gunnersbury parkrun","EventShortName":"Gunnersbury","countrycode":97,"seriesid":1,"EventLocation":"Gunnersbury Park, South Acton"}},{"id":192,"type":"Feature","geometry":{"type":"Point","coordinates":[0.810923,51.627409]},"properties":{"eventname":"burnhamoncrouch","EventLongName":"Burnham-on-Crouch parkrun","EventShortName":"Burnham-on-Crouch","countrycode":97,"seriesid":1,"EventLocation":"Riverside Country Park"}},{"id":193,"type":"Feature","geometry":{"type":"Point","coordinates":[153.051636,-27.471134]},"properties":{"eventname":"newfarm","EventLongName":"New Farm parkrun","EventShortName":"New Farm","countrycode":3,"seriesid":1,"EventLocation":"New Farm, Brisbane"}},{"id":194,"type":"Feature","geometry":{"type":"Point","coordinates":[-0.332639,51.420504]},"properties":{"eventname":"bushy-juniors","EventLongName":"Bushy junior parkrun","EventShortName":"Bushy juniors","countrycode":97,"seriesid":2,"EventLocation":"Bushy Park, Teddington"}},{"id":196,"type":"Feature","geometry":{"type":"Point","coordinates":[-0.770777,53.406272]},"properties":{"eventname":"gainsborough","EventLongName":"Gainsborough parkrun","EventShortName":"Gainsborough","countrycode":97,"seriesid":1,"EventLocation":"West Lindsey Leisure Centre"}},{"id":198,"type":"Feature","geometry":{"type":"Point","coordinates":[-1.292267,51.378426]},"properties":{"eventname":"newbury","EventLongName":"Newbury parkrun","EventShortName":"Newbury","countrycode":97,"seriesid":1,"EventLocation":"Greenham Common, Newbury"}},{"id":199,"type":"Feature","geometry":{"type":"Point","coordinates":[-2.574685,53.384221]},"properties":{"eventname":"warrington","EventLongName":"Warrington parkrun","EventShortName":"Warrington","countrycode":97,"seriesid":1,"EventLocation":"Victoria Park"}},{"id":200,"type":"Feature","geometry":{"type":"Point","coordinates":[-2.212502,56.969993]},"properties":{"eventname":"stonehaven","EventLongName":"Stonehaven parkrun","EventShortName":"Stonehaven","countrycode":97,"seriesid":1,"EventLocation":"Mineralwell Park"}},{"id":201,"type":"Feature","geometry":{"type":"Point","coordinates":[-2.178726,52.186989]},"properties":{"eventname":"worcester","EventLongName":"Worcester parkrun","EventShortName":"Worcester","countrycode":97,"seriesid":1,"EventLocation":"Worcester Woods Country Park"}},{"id":202,"type":"Feature","geometry":{"type":"Point","coordinates":[-1.646503,54.385534]},"properties":{"eventname":"catterick","EventLongName":"Catterick parkrun","EventShortName":"Catterick","countrycode":97,"seriesid":1,"EventLocation":"Catterick Racecourse"}},{"id":203,"type":"Feature","geometry":{"type":"Point","coordinates":[1.041942,51.365295]},"properties":{"eventname":"whitstable","EventLongName":"Whitstable parkrun","EventShortName":"Whitstable","countrycode":97,"seriesid":1,"EventLocation":"Whitstable Promenade"}},{"id":204,"type":"Feature","geometry":{"type":"Point","coordinates":[-0.060813,51.821422]},"properties":{"eventname":"westmill","EventLongName":"Westmill parkrun","EventShortName":"Westmill","countrycode":97,"seriesid":1,"EventLocation":"Westmill Farm"}},{"id":205,"type":"Feature","geometry":{"type":"Point","coordinates":[153.428879,-27.972706]},"properties":{"eventname":"mainbeach","EventLongName":"Main Beach parkrun","EventShortName":"Main Beach","countrycode":3,"seriesid":1,"EventLocation":"Main Beach, Goldcoast"}},{"id":206,"type":"Feature","geometry":{"type":"Point","coordinates":[-3.766712,55.99543]},"properties":{"eventname":"falkirk","EventLongName":"Falkirk parkrun","EventShortName":"Falkirk","countrycode":97,"seriesid":1,"EventLocation":"Callendar Park, Falkirk"}},{"id":207,"type":"Feature","geometry":{"type":"Point","coordinates":[-2.449547,50.627396]},"properties":{"eventname":"weymouth-juniors","EventLongName":"Weymouth junior parkrun","EventShortName":"Weymouth juniors","countrycode":97,"seriesid":2,"EventLocation":"Lodmoor Country Park"}},{"id":208,"type":"Feature","geometry":{"type":"Point","coordinates":[-0.186637,51.913566]},"properties":{"eventname":"stevenage-juniors","EventLongName":"Stevenage junior parkrun","EventShortName":"Stevenage juniors","countrycode":97,"seriesid":2,"EventLocation":"Hampson Park"}},{"id":209,"type":"Feature","geometry":{"type":"Point","coordinates":[-3.375658,51.73896]},"properties":{"eventname":"merthyr","EventLongName":"Merthyr parkrun","EventShortName":"Merthyr","countrycode":97,"seriesid":1,"EventLocation":"Merthyr Leisure Village"}},{"id":210,"type":"Feature","geometry":{"type":"Point","coordinates":[-0.776844,51.390248]},"properties":{"eventname":"bracknell","EventLongName":"Bracknell parkrun","EventShortName":"Bracknell","countrycode":97,"seriesid":1,"EventLocation":"Great Hollands Recreation Ground"}},{"id":211,"type":"Feature","geometry":{"type":"Point","coordinates":[-5.739909,54.549098]},"properties":{"eventname":"comber-juniors","EventLongName":"Comber junior parkrun","EventShortName":"Comber juniors","countrycode":97,"seriesid":2,"EventLocation":"Parkway"}},{"id":213,"type":"Feature","geometry":{"type":"Point","coordinates":[-1.295214,53.131155]},"properties":{"eventname":"brierleyforest","EventLongName":"Brierley Forest parkrun","EventShortName":"Brierley Forest","countrycode":97,"seriesid":1,"EventLocation":"Mineralwell Park"}},{"id":214,"type":"Feature","geometry":{"type":"Point","coordinates":[-3.213143,55.964343]},"properties":{"eventname":"inverleith-juniors","EventLongName":"Inverleith junior parkrun","EventShortName":"Inverleith juniors","countrycode":97,"seriesid":2,"EventLocation":"Inverleith park"}},{"id":215,"type":"Feature","geometry":{"type":"Point","coordinates":[-1.521435,53.992428]},"properties":{"eventname":"harrogate","EventLongName":"Harrogate parkrun","EventShortName":"Harrogate","countrycode":97,"seriesid":1,"EventLocation":"The Stray, Harrogate"}},{"id":216,"type":"Feature","geometry":{"type":"Point","coordinates":[-2.455223,56.726297]},"properties":{"eventname":"montrose","EventLongName":"Montrose parkrun","EventShortName":"Montrose","countrycode":97,"seriesid":1,"EventLocation":"Roselea Football Club"}},{"id":217,"type":"Feature","geometry":{"type":"Point","coordinates":[-1.54548,50.747747]},"properties":{"eventname":"lymingtonwoodside","EventLongName":"Lymington Woodside parkrun","EventShortName":"Lymington Woodside","countrycode":97,"seriesid":1,"EventLocation":"Woodside Gardens"}},{"id":218,"type":"Feature","geometry":{"type":"Point","coordinates":[-0.059908,51.396111]},"properties":{"eventname":"southnorwood","EventLongName":"South Norwood parkrun","EventShortName":"South Norwood","countrycode":97,"seriesid":1,"EventLocation":"South Norwood Country Park"}},{"id":219,"type":"Feature","geometry":{"type":"Point","coordinates":[-82.538434,40.767616]},"properties":{"eventname":"mansfieldoh","EventLongName":"Mansfield OH parkrun","EventShortName":"Mansfield OH","countrycode":98,"seriesid":1,"EventLocation":"North Lake Park"}},{"id":220,"type":"Feature","geometry":{"type":"Point","coordinates":[-0.403035,51.705262]},"properties":{"eventname":"leavesden-juniors","EventLongName":"Leavesden junior parkrun","EventShortName":"Leavesden juniors","countrycode":97,"seriesid":2,"EventLocation":"Leavesden Country Park"}},{"id":221,"type":"Feature","geometry":{"type":"Point","coordinates":[-2.985341,53.656276]},"properties":{"eventname":"southport","EventLongName":"Southport parkrun","EventShortName":"Southport","countrycode":97,"seriesid":1,"EventLocation":"Hesketh Park"}},{"id":222,"type":"Feature","geometry":{"type":"Point","coordinates":[-2.140875,52.588775]},"properties":{"eventname":"wolverhampton","EventLongName":"Wolverhampton parkrun","EventShortName":"Wolverhampton","countrycode":97,"seriesid":1,"EventLocation":"West Park"}},{"id":223,"type":"Feature","geometry":{"type":"Point","coordinates":[-2.444706,53.577613]},"properties":{"eventname":"queenspark-juniors","EventLongName":"Queen\u2019s Park junior parkrun, Bolton","EventShortName":"Queen\u2019s Park juniors, Bolton","countrycode":97,"seriesid":2,"EventLocation":"Queen\u2019s Park"}},{"id":224,"type":"Feature","geometry":{"type":"Point","coordinates":[-2.231707,51.878304]},"properties":{"eventname":"gloucesternorth","EventLongName":"Gloucester North parkrun","EventShortName":"Gloucester North","countrycode":97,"seriesid":1,"EventLocation":"Plock Court Playing Fields"}},{"id":225,"type":"Feature","geometry":{"type":"Point","coordinates":[-3.435422,56.40515]},"properties":{"eventname":"perth","EventLongName":"Perth parkrun","EventShortName":"Perth","countrycode":97,"seriesid":1,"EventLocation":"North Inch and Riverside parks"}},{"id":226,"type":"Feature","geometry":{"type":"Point","coordinates":[-2.231964,52.201513]},"properties":{"eventname":"worcesterpitchcroft","EventLongName":"Worcester Pitchcroft parkrun","EventShortName":"Worcester Pitchcroft","countrycode":97,"seriesid":1,"EventLocation":"The Pitchcroft, Worcester Racecourse"}},{"id":227,"type":"Feature","geometry":{"type":"Point","coordinates":[-0.165825,52.359161]},"properties":{"eventname":"jubilee-juniors","EventLongName":"Jubilee junior parkrun","EventShortName":"Jubilee juniors","countrycode":97,"seriesid":2,"EventLocation":"Jubilee Park"}},{"id":228,"type":"Feature","geometry":{"type":"Point","coordinates":[-3.030939,51.559479]},"properties":{"eventname":"newport","EventLongName":"Newport parkrun","EventShortName":"Newport","countrycode":97,"seriesid":1,"EventLocation":"Tredegar House, Newport"}},{"id":229,"type":"Feature","geometry":{"type":"Point","coordinates":[-2.229795,53.160781]},"properties":{"eventname":"congleton","EventLongName":"Congleton parkrun","EventShortName":"Congleton","countrycode":97,"seriesid":1,"EventLocation":"Astbury Mere"}},{"id":230,"type":"Feature","geometry":{"type":"Point","coordinates":[0.014977,51.56078]},"properties":{"eventname":"wansteadflats","EventLongName":"Wanstead Flats parkrun","EventShortName":"Wanstead Flats","countrycode":97,"seriesid":1,"EventLocation":"Wanstead Flats, Epping Forest"}},{"id":231,"type":"Feature","geometry":{"type":"Point","coordinates":[-2.3054,53.490729]},"properties":{"eventname":"salford-juniors","EventLongName":"Salford junior parkrun","EventShortName":"Salford juniors","countrycode":97,"seriesid":2,"EventLocation":"Buille Hill Park"}},{"id":232,"type":"Feature","geometry":{"type":"Point","coordinates":[-1.558852,54.767605]},"properties":{"eventname":"durham","EventLongName":"Durham parkrun","EventShortName":"Durham","countrycode":97,"seriesid":1,"EventLocation":"Graham Sports Centre, Durham"}},{"id":233,"type":"Feature","geometry":{"type":"Point","coordinates":[-1.968876,50.720348]},"properties":{"eventname":"poole","EventLongName":"Poole parkrun","EventShortName":"Poole","countrycode":97,"seriesid":1,"EventLocation":"Poole Park, Poole"}},{"id":234,"type":"Feature","geometry":{"type":"Point","coordinates":[-0.919288,51.531978]},"properties":{"eventname":"henleyonthames","EventLongName":"Henley-on-Thames parkrun","EventShortName":"Henley-on-Thames","countrycode":97,"seriesid":1,"EventLocation":"Henley-on-Thames"}},{"id":235,"type":"Feature","geometry":{"type":"Point","coordinates":[-2.68652,53.441061]},"properties":{"eventname":"boldforest-juniors","EventLongName":"Bold Forest junior parkrun","EventShortName":"Bold Forest juniors","countrycode":97,"seriesid":2,"EventLocation":"Colliers Moss North"}},{"id":236,"type":"Feature","geometry":{"type":"Point","coordinates":[-1.345392,50.8683]},"properties":{"eventname":"netleyabbey-juniors","EventLongName":"Netley Abbey junior parkrun","EventShortName":"Netley Abbey juniors","countrycode":97,"seriesid":2,"EventLocation":"Royal Victoria Country Park"}},{"id":237,"type":"Feature","geometry":{"type":"Point","coordinates":[-7.318933,55.006966]},"properties":{"eventname":"derrycity","EventLongName":"Derry City parkrun","EventShortName":"Derry City","countrycode":97,"seriesid":1,"EventLocation":"Derry City Centre"}},{"id":238,"type":"Feature","geometry":{"type":"Point","coordinates":[-1.153797,50.781474]},"properties":{"eventname":"stokesbay-juniors","EventLongName":"Stokes Bay junior parkrun","EventShortName":"Stokes Bay juniors","countrycode":97,"seriesid":2,"EventLocation":"Stokes Bay Promenade"}},{"id":239,"type":"Feature","geometry":{"type":"Point","coordinates":[-3.455007,50.792835]},"properties":{"eventname":"killerton","EventLongName":"Killerton parkrun","EventShortName":"Killerton","countrycode":97,"seriesid":1,"EventLocation":"Killerton, Broadclyst"}},{"id":240,"type":"Feature","geometry":{"type":"Point","coordinates":[-1.486115,53.544369]},"properties":{"eventname":"barnsley","EventLongName":"Barnsley parkrun","EventShortName":"Barnsley","countrycode":97,"seriesid":1,"EventLocation":"Locke Park, Barnsley"}},{"id":241,"type":"Feature","geometry":{"type":"Point","coordinates":[-0.079549,51.318485]},"properties":{"eventname":"riddlesdown","EventLongName":"Riddlesdown parkrun","EventShortName":"Riddlesdown","countrycode":97,"seriesid":1,"EventLocation":"Riddlesdown, Warlingham"}},{"id":242,"type":"Feature","geometry":{"type":"Point","coordinates":[-2.902368,53.207796]},"properties":{"eventname":"chester","EventLongName":"Chester parkrun","EventShortName":"Chester","countrycode":97,"seriesid":1,"EventLocation":"Countess of Chester Country Park"}},{"id":243,"type":"Feature","geometry":{"type":"Point","coordinates":[-5.88614,54.68829]},"properties":{"eventname":"jordanstown-juniors","EventLongName":"Jordanstown junior parkrun","EventShortName":"Jordanstown juniors","countrycode":97,"seriesid":2,"EventLocation":"Ulster University, Jordanstown Campus"}},{"id":244,"type":"Feature","geometry":{"type":"Point","coordinates":[-0.710653,52.384226]},"properties":{"eventname":"kettering","EventLongName":"Kettering parkrun","EventShortName":"Kettering","countrycode":97,"seriesid":1,"EventLocation":"Wicksteed Park"}},{"id":245,"type":"Feature","geometry":{"type":"Point","coordinates":[0.730183,52.224887]},"properties":{"eventname":"burystedmunds","EventLongName":"Bury St Edmunds parkrun","EventShortName":"Bury St Edmunds","countrycode":97,"seriesid":1,"EventLocation":"Nowton Park"}},{"id":246,"type":"Feature","geometry":{"type":"Point","coordinates":[-0.924979,52.474487]},"properties":{"eventname":"marketharborough","EventLongName":"Market Harborough parkrun","EventShortName":"Market Harborough","countrycode":97,"seriesid":1,"EventLocation":"Welland Park"}},{"id":247,"type":"Feature","geometry":{"type":"Point","coordinates":[-1.473456,53.750032]},"properties":{"eventname":"rothwell","EventLongName":"Rothwell parkrun","EventShortName":"Rothwell","countrycode":97,"seriesid":1,"EventLocation":"Springhead Park"}},{"id":248,"type":"Feature","geometry":{"type":"Point","coordinates":[-1.602094,54.944733]},"properties":{"eventname":"gateshead","EventLongName":"Gateshead parkrun","EventShortName":"Gateshead","countrycode":97,"seriesid":1,"EventLocation":" Saltwell Park, Gateshead"}},{"id":249,"type":"Feature","geometry":{"type":"Point","coordinates":[-2.838234,56.317711]},"properties":{"eventname":"standrews","EventLongName":"St Andrews parkrun","EventShortName":"St Andrews","countrycode":97,"seriesid":1,"EventLocation":"Craigtoun Country Park"}},{"id":250,"type":"Feature","geometry":{"type":"Point","coordinates":[-4.481846,54.165828]},"properties":{"eventname":"nobles","EventLongName":"Nobles parkrun","EventShortName":"Nobles","countrycode":97,"seriesid":1,"EventLocation":"Nobles Park"}},{"id":251,"type":"Feature","geometry":{"type":"Point","coordinates":[-1.966252,52.58725]},"properties":{"eventname":"walsall","EventLongName":"Walsall Arboretum parkrun","EventShortName":"Walsall Arboretum","countrycode":97,"seriesid":1,"EventLocation":"Walsall Arboretum"}},{"id":252,"type":"Feature","geometry":{"type":"Point","coordinates":[-2.542745,53.491608]},"properties":{"eventname":"penningtonflash","EventLongName":"Pennington Flash parkrun","EventShortName":"Pennington Flash","countrycode":97,"seriesid":1,"EventLocation":"Pennington Flash"}},{"id":253,"type":"Feature","geometry":{"type":"Point","coordinates":[-0.258062,51.507905]},"properties":{"eventname":"acton-juniors","EventLongName":"Acton junior parkrun","EventShortName":"Acton juniors","countrycode":97,"seriesid":2,"EventLocation":"Acton Park"}},{"id":254,"type":"Feature","geometry":{"type":"Point","coordinates":[-0.066953,51.61887]},"properties":{"eventname":"pymmes","EventLongName":"Pymmes parkrun","EventShortName":"Pymmes","countrycode":97,"seriesid":1,"EventLocation":"Pymmes Park, Edmonton"}},{"id":255,"type":"Feature","geometry":{"type":"Point","coordinates":[-2.956975,53.386456]},"properties":{"eventname":"princes","EventLongName":"Princes parkrun, Liverpool","EventShortName":"Princes","countrycode":97,"seriesid":1,"EventLocation":"Princes Park, Liverpool"}},{"id":256,"type":"Feature","geometry":{"type":"Point","coordinates":[9.120852,55.474609]},"properties":{"eventname":"vejen","EventLongName":"Vejen parkrun","EventShortName":"Vejen","countrycode":23,"seriesid":1,"EventLocation":"Vejen Idr\u00e6tscenter"}},{"id":257,"type":"Feature","geometry":{"type":"Point","coordinates":[-0.06577,51.419792]},"properties":{"eventname":"crystalpalace-juniors","EventLongName":"Crystal Palace junior parkrun","EventShortName":"Crystal Palace juniors","countrycode":97,"seriesid":2,"EventLocation":"Crystal Palace Park"}},{"id":258,"type":"Feature","geometry":{"type":"Point","coordinates":[-1.800685,53.650608]},"properties":{"eventname":"huddersfield","EventLongName":"Huddersfield parkrun","EventShortName":"Huddersfield","countrycode":97,"seriesid":1,"EventLocation":"Greenhead Park, Huddersfield"}},{"id":259,"type":"Feature","geometry":{"type":"Point","coordinates":[-3.665573,51.609499]},"properties":{"eventname":"maesteg","EventLongName":"Maesteg parkrun","EventShortName":"Maesteg","countrycode":97,"seriesid":1,"EventLocation":"Welfare Park"}},{"id":260,"type":"Feature","geometry":{"type":"Point","coordinates":[-4.206828,51.685529]},"properties":{"eventname":"llanellicoast-juniors","EventLongName":"Llanelli Coast junior parkrun","EventShortName":"Llanelli Coast juniors","countrycode":97,"seriesid":2,"EventLocation":"King George V Playing Fields"}},{"id":261,"type":"Feature","geometry":{"type":"Point","coordinates":[-1.285853,52.895155]},"properties":{"eventname":"longeaton","EventLongName":"Long Eaton parkrun","EventShortName":"Long Eaton","countrycode":97,"seriesid":1,"EventLocation":"West Park Leisure Centre"}},{"id":262,"type":"Feature","geometry":{"type":"Point","coordinates":[-2.965534,53.43405]},"properties":{"eventname":"stanleypark-juniors","EventLongName":"Stanley Park junior parkrun","EventShortName":"Stanley Park juniors","countrycode":97,"seriesid":2,"EventLocation":"Stanley Park"}},{"id":263,"type":"Feature","geometry":{"type":"Point","coordinates":[-2.013428,50.734891]},"properties":{"eventname":"uptonhouse","EventLongName":"Upton House parkrun","EventShortName":"Upton House","countrycode":97,"seriesid":1,"EventLocation":"Upton Country Park"}},{"id":264,"type":"Feature","geometry":{"type":"Point","coordinates":[-0.555006,51.311946]},"properties":{"eventname":"woking-juniors","EventLongName":"Woking junior parkrun","EventShortName":"Woking juniors","countrycode":97,"seriesid":2,"EventLocation":"Woking Park"}},{"id":265,"type":"Feature","geometry":{"type":"Point","coordinates":[-1.286999,50.711823]},"properties":{"eventname":"medina","EventLongName":"Medina I.O.W. parkrun","EventShortName":"Medina I.O.W.","countrycode":97,"seriesid":1,"EventLocation":"Seaclose Park, Medina, I.O.W."}},{"id":266,"type":"Feature","geometry":{"type":"Point","coordinates":[-1.226339,54.661422]},"properties":{"eventname":"rossmere-juniors","EventLongName":"Rossmere junior parkrun","EventShortName":"Rossmere juniors","countrycode":97,"seriesid":2,"EventLocation":"Rossmere Park"}},{"id":267,"type":"Feature","geometry":{"type":"Point","coordinates":[-4.235474,57.463654]},"properties":{"eventname":"inverness","EventLongName":"Inverness parkrun","EventShortName":"Inverness","countrycode":97,"seriesid":1,"EventLocation":"Bught Park, Inverness"}},{"id":268,"type":"Feature","geometry":{"type":"Point","coordinates":[0.270291,51.20977]},"properties":{"eventname":"tonbridge-juniors","EventLongName":"Tonbridge junior parkrun","EventShortName":"Tonbridge juniors","countrycode":97,"seriesid":2,"EventLocation":"Tonbridge Farm Sportsground"}},{"id":270,"type":"Feature","geometry":{"type":"Point","coordinates":[-76.695322,39.30401]},"properties":{"eventname":"leakinpark","EventLongName":"Leakin Park parkrun","EventShortName":"Leakin Park","countrycode":98,"seriesid":1,"EventLocation":"Winans Meadow"}},{"id":271,"type":"Feature","geometry":{"type":"Point","coordinates":[-2.105342,57.131553]},"properties":{"eventname":"duthie-juniors","EventLongName":"Duthie junior parkrun","EventShortName":"Duthie juniors","countrycode":97,"seriesid":2,"EventLocation":"Duthie Park"}},{"id":272,"type":"Feature","geometry":{"type":"Point","coordinates":[-3.412742,56.201892]},"properties":{"eventname":"lochleven-juniors","EventLongName":"Loch Leven junior parkrun","EventShortName":"Loch Leven juniors","countrycode":97,"seriesid":2,"EventLocation":"Kirkgate Park"}},{"id":273,"type":"Feature","geometry":{"type":"Point","coordinates":[-2.395615,53.574715]},"properties":{"eventname":"bolton","EventLongName":"Bolton parkrun","EventShortName":"Bolton","countrycode":97,"seriesid":1,"EventLocation":"Leverhulme Park, Bolton"}},{"id":274,"type":"Feature","geometry":{"type":"Point","coordinates":[-4.74285,50.358315]},"properties":{"eventname":"edenproject","EventLongName":"Eden Project parkrun","EventShortName":"Eden Project","countrycode":97,"seriesid":1,"EventLocation":"Eden Project"}},{"id":275,"type":"Feature","geometry":{"type":"Point","coordinates":[0.19249,51.585798]},"properties":{"eventname":"raphael","EventLongName":"Raphael parkrun","EventShortName":"Raphael","countrycode":97,"seriesid":1,"EventLocation":"Raphael Park"}},{"id":276,"type":"Feature","geometry":{"type":"Point","coordinates":[-0.308132,52.565563]},"properties":{"eventname":"peterborough","EventLongName":"Peterborough parkrun","EventShortName":"Peterborough","countrycode":97,"seriesid":1,"EventLocation":"Ferry Meadows Country Park"}},{"id":277,"type":"Feature","geometry":{"type":"Point","coordinates":[0.68877,51.726742]},"properties":{"eventname":"maldonprom","EventLongName":"Maldon Prom parkrun","EventShortName":"Maldon Prom","countrycode":97,"seriesid":1,"EventLocation":"Maldon Promenade Park"}},{"id":278,"type":"Feature","geometry":{"type":"Point","coordinates":[-0.659924,53.638407]},"properties":{"eventname":"normanbyhall","EventLongName":"Normanby Hall parkrun","EventShortName":"Normanby Hall","countrycode":97,"seriesid":1,"EventLocation":"Normanby Hall Country Park"}},{"id":279,"type":"Feature","geometry":{"type":"Point","coordinates":[0.417446,51.632966]},"properties":{"eventname":"billericay","EventLongName":"Billericay parkrun","EventShortName":"Billericay","countrycode":97,"seriesid":1,"EventLocation":"Lake Meadows Park"}},{"id":280,"type":"Feature","geometry":{"type":"Point","coordinates":[-1.310849,51.069286]},"properties":{"eventname":"winchester","EventLongName":"Winchester parkrun","EventShortName":"Winchester","countrycode":97,"seriesid":1,"EventLocation":"North Walls Recreation Ground"}},{"id":281,"type":"Feature","geometry":{"type":"Point","coordinates":[-2.605219,51.808701]},"properties":{"eventname":"forestofdean-juniors","EventLongName":"Forest of Dean junior parkrun","EventShortName":"Forest of Dean juniors","countrycode":97,"seriesid":2,"EventLocation":"Coverham Enclosure, Forest of Dean"}},{"id":282,"type":"Feature","geometry":{"type":"Point","coordinates":[-0.74009,51.62337]},"properties":{"eventname":"wycomberye","EventLongName":"Wycombe Rye parkrun","EventShortName":"Wycombe Rye","countrycode":97,"seriesid":1,"EventLocation":"The Rye"}},{"id":283,"type":"Feature","geometry":{"type":"Point","coordinates":[-2.498184,51.482568]},"properties":{"eventname":"pagepark-juniors","EventLongName":"Page Park junior parkrun","EventShortName":"Page Park juniors","countrycode":97,"seriesid":2,"EventLocation":"Page Park"}},{"id":284,"type":"Feature","geometry":{"type":"Point","coordinates":[-3.606924,55.062707]},"properties":{"eventname":"dumfries-juniors","EventLongName":"Dumfries junior parkrun","EventShortName":"Dumfries juniors","countrycode":97,"seriesid":2,"EventLocation":"Dock Park"}},{"id":285,"type":"Feature","geometry":{"type":"Point","coordinates":[-0.17993,51.902634]},"properties":{"eventname":"stevenage","EventLongName":"Stevenage parkrun","EventShortName":"Stevenage","countrycode":97,"seriesid":1,"EventLocation":"Six Hills Way"}},{"id":286,"type":"Feature","geometry":{"type":"Point","coordinates":[-1.543021,52.739475]},"properties":{"eventname":"conkers","EventLongName":"Conkers parkrun","EventShortName":"Conkers","countrycode":97,"seriesid":1,"EventLocation":"Conkers Park"}},{"id":287,"type":"Feature","geometry":{"type":"Point","coordinates":[-1.958169,52.09023]},"properties":{"eventname":"evesham-juniors","EventLongName":"Evesham junior parkrun","EventShortName":"Evesham juniors","countrycode":97,"seriesid":2,"EventLocation":"Evesham"}},{"id":288,"type":"Feature","geometry":{"type":"Point","coordinates":[-4.053612,51.072561]},"properties":{"eventname":"barnstaple","EventLongName":"Barnstaple parkrun","EventShortName":"Barnstaple","countrycode":97,"seriesid":1,"EventLocation":"Rock Park"}},{"id":290,"type":"Feature","geometry":{"type":"Point","coordinates":[-1.441612,53.424007]},"properties":{"eventname":"concord","EventLongName":"Concord parkrun, Sheffield","EventShortName":"Concord","countrycode":97,"seriesid":1,"EventLocation":"Concord Park, Sheffield"}},{"id":291,"type":"Feature","geometry":{"type":"Point","coordinates":[-1.277429,51.667957]},"properties":{"eventname":"abingdon","EventLongName":"Abingdon parkrun","EventShortName":"Abingdon","countrycode":97,"seriesid":1,"EventLocation":"Rye Meadow, Abingdon"}},{"id":292,"type":"Feature","geometry":{"type":"Point","coordinates":[12.635341,55.662538]},"properties":{"eventname":"amagerstrandpark","EventLongName":"Amager Strandpark parkrun","EventShortName":"Amager Strandpark","countrycode":23,"seriesid":1,"EventLocation":"Amager Strandpark, K\u00f8benhavn"}},{"id":293,"type":"Feature","geometry":{"type":"Point","coordinates":[-0.760168,52.05864]},"properties":{"eventname":"linfordwood","EventLongName":"Linford Wood parkrun","EventShortName":"Linford Wood","countrycode":97,"seriesid":1,"EventLocation":"Linford Wood"}},{"id":294,"type":"Feature","geometry":{"type":"Point","coordinates":[-0.000831,51.676037]},"properties":{"eventname":"gunpowder","EventLongName":"Gunpowder parkrun","EventShortName":"Gunpowder","countrycode":97,"seriesid":1,"EventLocation":"Gunpowder Park, Waltham Abbey"}},{"id":295,"type":"Feature","geometry":{"type":"Point","coordinates":[-5.881573,54.608785]},"properties":{"eventname":"belfastvictoria","EventLongName":"Belfast Victoria parkrun","EventShortName":"Belfast Victoria","countrycode":97,"seriesid":1,"EventLocation":"Victoria Park, Belfast"}},{"id":296,"type":"Feature","geometry":{"type":"Point","coordinates":[-1.97579,52.521531]},"properties":{"eventname":"sandwellvalley","EventLongName":"Sandwell Valley parkrun","EventShortName":"Sandwell Valley","countrycode":97,"seriesid":1,"EventLocation":"Sandwell Park Farm"}},{"id":297,"type":"Feature","geometry":{"type":"Point","coordinates":[-1.496007,53.83828]},"properties":{"eventname":"roundhay","EventLongName":"Roundhay parkrun","EventShortName":"Roundhay","countrycode":97,"seriesid":1,"EventLocation":"Roundhay Park, Leeds"}},{"id":299,"type":"Feature","geometry":{"type":"Point","coordinates":[-0.327908,51.06651]},"properties":{"eventname":"horsham","EventLongName":"Horsham parkrun","EventShortName":"Horsham","countrycode":97,"seriesid":1,"EventLocation":"Horsham"}},{"id":300,"type":"Feature","geometry":{"type":"Point","coordinates":[-0.12233,51.595936]},"properties":{"eventname":"allypally","EventLongName":"Ally Pally parkrun","EventShortName":"Ally Pally","countrycode":97,"seriesid":1,"EventLocation":"Alexandra Palace, Haringey"}},{"id":301,"type":"Feature","geometry":{"type":"Point","coordinates":[-3.267184,51.783571]},"properties":{"eventname":"brynbach-juniors","EventLongName":"Bryn Bach junior parkrun","EventShortName":"Bryn Bach juniors","countrycode":97,"seriesid":2,"EventLocation":"Bryn Bach country park"}},{"id":302,"type":"Feature","geometry":{"type":"Point","coordinates":[-0.238523,51.520412]},"properties":{"eventname":"wormwoodscrubs","EventLongName":"Wormwood Scrubs parkrun","EventShortName":"Wormwood Scrubs","countrycode":97,"seriesid":1,"EventLocation":"Wormwood Scrubs Park"}},{"id":303,"type":"Feature","geometry":{"type":"Point","coordinates":[22.234316,-33.534495]},"properties":{"eventname":"oudtshoorn","EventLongName":"Oudtshoorn parkrun","EventShortName":"Oudtshoorn","countrycode":85,"seriesid":1,"EventLocation":"Oudtshoorn"}},{"id":304,"type":"Feature","geometry":{"type":"Point","coordinates":[-3.218855,54.117706]},"properties":{"eventname":"barrow","EventLongName":"Barrow parkrun","EventShortName":"Barrow","countrycode":97,"seriesid":1,"EventLocation":"Barrow Park, Barrow-in-Furness"}},{"id":307,"type":"Feature","geometry":{"type":"Point","coordinates":[-2.530114,51.606368]},"properties":{"eventname":"thornbury","EventLongName":"Thornbury parkrun","EventShortName":"Thornbury","countrycode":97,"seriesid":1,"EventLocation":"Mundy Playing Fields"}},{"id":308,"type":"Feature","geometry":{"type":"Point","coordinates":[-2.554304,51.475453]},"properties":{"eventname":"eastville","EventLongName":"Eastville parkrun","EventShortName":"Eastville","countrycode":97,"seriesid":1,"EventLocation":"Eastville Park"}},{"id":309,"type":"Feature","geometry":{"type":"Point","coordinates":[0.098847,51.400981]},"properties":{"eventname":"hoblingwell","EventLongName":"Hoblingwell parkrun","EventShortName":"Hoblingwell","countrycode":97,"seriesid":1,"EventLocation":"Hoblingwell Wood Recreation Ground"}},{"id":310,"type":"Feature","geometry":{"type":"Point","coordinates":[-2.288139,53.405502]},"properties":{"eventname":"wythenshawe","EventLongName":"Wythenshawe parkrun","EventShortName":"Wythenshawe","countrycode":97,"seriesid":1,"EventLocation":"Wythenshawe Park, Wythenshawe"}},{"id":312,"type":"Feature","geometry":{"type":"Point","coordinates":[-6.259117,54.867371]},"properties":{"eventname":"ecos","EventLongName":"Ecos parkrun, Ballymena","EventShortName":"Ecos","countrycode":97,"seriesid":1,"EventLocation":"Ecos Park, Ballymena"}},{"id":313,"type":"Feature","geometry":{"type":"Point","coordinates":[0.407446,52.752762]},"properties":{"eventname":"kingslynn","EventLongName":"King\u2019s Lynn parkrun","EventShortName":"King\u2019s Lynn","countrycode":97,"seriesid":1,"EventLocation":"The Walks, King\u2019s Lynn"}},{"id":314,"type":"Feature","geometry":{"type":"Point","coordinates":[-2.234092,51.306461]},"properties":{"eventname":"southwickcountrypark","EventLongName":"Southwick Country parkrun","EventShortName":"Southwick Country Park","countrycode":97,"seriesid":1,"EventLocation":"Southwick Country Park"}},{"id":316,"type":"Feature","geometry":{"type":"Point","coordinates":[-1.160495,52.965238]},"properties":{"eventname":"forestrec-juniors","EventLongName":"Forest Rec junior parkrun","EventShortName":"Forest Rec juniors","countrycode":97,"seriesid":2,"EventLocation":"Forest Recreation Ground"}},{"id":317,"type":"Feature","geometry":{"type":"Point","coordinates":[-1.563025,54.940189]},"properties":{"eventname":"windynook","EventLongName":"Windy Nook parkrun","EventShortName":"Windy Nook","countrycode":97,"seriesid":1,"EventLocation":"Windy Nook Nature Park"}},{"id":327,"type":"Feature","geometry":{"type":"Point","coordinates":[-2.175164,53.012501]},"properties":{"eventname":"hanley","EventLongName":"Hanley parkrun","EventShortName":"Hanley","countrycode":97,"seriesid":1,"EventLocation":"Hanley Park, Hanley"}},{"id":328,"type":"Feature","geometry":{"type":"Point","coordinates":[1.22519,52.621317]},"properties":{"eventname":"colneylane","EventLongName":"Colney Lane parkrun","EventShortName":"Colney Lane","countrycode":97,"seriesid":1,"EventLocation":"UEA Colney Lane Playing Fields"}},{"id":329,"type":"Feature","geometry":{"type":"Point","coordinates":[-4.670058,55.541413]},"properties":{"eventname":"troon","EventLongName":"Troon parkrun","EventShortName":"Troon","countrycode":97,"seriesid":1,"EventLocation":"South Beach Esplanade"}},{"id":331,"type":"Feature","geometry":{"type":"Point","coordinates":[-1.289735,54.610247]},"properties":{"eventname":"billingham-juniors","EventLongName":"Billingham junior parkrun","EventShortName":"Billingham juniors","countrycode":97,"seriesid":2,"EventLocation":"John Whitehead Park"}},{"id":334,"type":"Feature","geometry":{"type":"Point","coordinates":[-2.995012,55.856879]},"properties":{"eventname":"vogrie","EventLongName":"Vogrie parkrun","EventShortName":"Vogrie","countrycode":97,"seriesid":1,"EventLocation":"Vogrie Country Park"}},{"id":335,"type":"Feature","geometry":{"type":"Point","coordinates":[0.787526,51.523431]},"properties":{"eventname":"southend","EventLongName":"Southend parkrun","EventShortName":"Southend","countrycode":97,"seriesid":1,"EventLocation":"Gunners Park"}},{"id":336,"type":"Feature","geometry":{"type":"Point","coordinates":[28.009354,-26.125349]},"properties":{"eventname":"delta","EventLongName":"Delta parkrun","EventShortName":"Delta","countrycode":85,"seriesid":1,"EventLocation":"South Africa"}},{"id":337,"type":"Feature","geometry":{"type":"Point","coordinates":[18.558699,54.502632]},"properties":{"eventname":"gdynia","EventLongName":"parkrun Gdynia","EventShortName":"Gdynia","countrycode":74,"seriesid":1,"EventLocation":"Bulwar Nadmorski, Gdynia"}},{"id":338,"type":"Feature","geometry":{"type":"Point","coordinates":[-0.160761,54.103268]},"properties":{"eventname":"sewerby","EventLongName":"Sewerby parkrun","EventShortName":"Sewerby","countrycode":97,"seriesid":1,"EventLocation":"Sewerby Hall and Gardens, Bridlington"}},{"id":340,"type":"Feature","geometry":{"type":"Point","coordinates":[-0.928372,52.47499]},"properties":{"eventname":"marketharborough-juniors","EventLongName":"Market Harborough junior parkrun","EventShortName":"Market Harborough juniors","countrycode":97,"seriesid":2,"EventLocation":"Welland Park"}},{"id":341,"type":"Feature","geometry":{"type":"Point","coordinates":[-4.624316,55.436189]},"properties":{"eventname":"ayr","EventLongName":"Ayr parkrun","EventShortName":"Ayr","countrycode":97,"seriesid":1,"EventLocation":"Rozelle Park"}},{"id":342,"type":"Feature","geometry":{"type":"Point","coordinates":[-1.564287,54.775551]},"properties":{"eventname":"durhamcity-juniors","EventLongName":"Durham City junior parkrun","EventShortName":"Durham City juniors","countrycode":97,"seriesid":2,"EventLocation":"Durham Racecourse"}},{"id":343,"type":"Feature","geometry":{"type":"Point","coordinates":[-0.033946,51.518169]},"properties":{"eventname":"mileend","EventLongName":"Mile End parkrun","EventShortName":"Mile End","countrycode":97,"seriesid":1,"EventLocation":"Mile End Park, London"}},{"id":344,"type":"Feature","geometry":{"type":"Point","coordinates":[-0.079206,51.443869]},"properties":{"eventname":"dulwich","EventLongName":"Dulwich parkrun","EventShortName":"Dulwich","countrycode":97,"seriesid":1,"EventLocation":"Dulwich Park, Dulwich"}},{"id":345,"type":"Feature","geometry":{"type":"Point","coordinates":[18.6017,54.41428]},"properties":{"eventname":"gdansk","EventLongName":"parkrun Gda\u0144sk","EventShortName":"Gda\u0144sk","countrycode":74,"seriesid":1,"EventLocation":"Park Ronalda Reagana, Gdansk"}},{"id":347,"type":"Feature","geometry":{"type":"Point","coordinates":[-2.287804,51.752554]},"properties":{"eventname":"stonehouse","EventLongName":"Stonehouse parkrun","EventShortName":"Stonehouse","countrycode":97,"seriesid":1,"EventLocation":"Oldends Lane Playing Fields"}},{"id":348,"type":"Feature","geometry":{"type":"Point","coordinates":[-2.113119,51.460469]},"properties":{"eventname":"chippenham","EventLongName":"Chippenham parkrun","EventShortName":"Chippenham","countrycode":97,"seriesid":1,"EventLocation":"Monkton Park"}},{"id":349,"type":"Feature","geometry":{"type":"Point","coordinates":[153.522781,-28.166758]},"properties":{"eventname":"kirra","EventLongName":"Kirra parkrun","EventShortName":"Kirra","countrycode":3,"seriesid":1,"EventLocation":"Kirra Beach, Gold Coast QLD, Australia"}},{"id":350,"type":"Feature","geometry":{"type":"Point","coordinates":[151.76144,-32.914566]},"properties":{"eventname":"newy","EventLongName":"Newy parkrun","EventShortName":"Newy","countrycode":3,"seriesid":1,"EventLocation":"50a Tully St, Carrington, Newcastle NSW"}},{"id":351,"type":"Feature","geometry":{"type":"Point","coordinates":[-1.119683,60.158081]},"properties":{"eventname":"bressay","EventLongName":"Bressay parkrun","EventShortName":"Bressay","countrycode":97,"seriesid":1,"EventLocation":"Bressay"}},{"id":352,"type":"Feature","geometry":{"type":"Point","coordinates":[-5.963387,54.555092]},"properties":{"eventname":"queens","EventLongName":"Queen\u2019s parkrun, Belfast","EventShortName":"Queens","countrycode":97,"seriesid":1,"EventLocation":"Queen's Uni Sport, Upper Malone"}},{"id":353,"type":"Feature","geometry":{"type":"Point","coordinates":[-5.978879,54.586363]},"properties":{"eventname":"falls","EventLongName":"Falls parkrun, Belfast","EventShortName":"Falls","countrycode":97,"seriesid":1,"EventLocation":"Falls Park, Belfast"}},{"id":354,"type":"Feature","geometry":{"type":"Point","coordinates":[174.899498,-41.210738]},"properties":{"eventname":"lowerhutt","EventLongName":"Lower Hutt parkrun","EventShortName":"Lower Hutt","countrycode":65,"seriesid":1,"EventLocation":"Strand Park, Lowerhutt"}},{"id":355,"type":"Feature","geometry":{"type":"Point","coordinates":[-2.359056,53.494328]},"properties":{"eventname":"worsleywoods","EventLongName":"Worsley Woods parkrun","EventShortName":"Worsley Woods","countrycode":97,"seriesid":1,"EventLocation":"Worsley Woods, Salford"}},{"id":356,"type":"Feature","geometry":{"type":"Point","coordinates":[-1.466289,54.653008]},"properties":{"eventname":"sedgefield","EventLongName":"Sedgefield parkrun","EventShortName":"Sedgefield","countrycode":97,"seriesid":1,"EventLocation":"Hardwick Park, Sedgefield"}},{"id":357,"type":"Feature","geometry":{"type":"Point","coordinates":[-0.510046,51.90155]},"properties":{"eventname":"houghtonhall","EventLongName":"Houghton Hall parkrun","EventShortName":"Houghton Hall","countrycode":97,"seriesid":1,"EventLocation":"Houghton Hall Park"}},{"id":358,"type":"Feature","geometry":{"type":"Point","coordinates":[27.90703,-26.163327]},"properties":{"eventname":"roodepoort","EventLongName":"Roodepoort parkrun","EventShortName":"Roodepoort","countrycode":85,"seriesid":1,"EventLocation":"Len Rutter Park, Johannesburg"}},{"id":359,"type":"Feature","geometry":{"type":"Point","coordinates":[-1.07902,54.615225]},"properties":{"eventname":"redcar","EventLongName":"Redcar parkrun","EventShortName":"Redcar","countrycode":97,"seriesid":1,"EventLocation":"Locke Park, Redcar"}},{"id":360,"type":"Feature","geometry":{"type":"Point","coordinates":[-3.518828,55.886797]},"properties":{"eventname":"livingston","EventLongName":"Livingston parkrun","EventShortName":"Livingston","countrycode":97,"seriesid":1,"EventLocation":"Almondvale Park"}},{"id":361,"type":"Feature","geometry":{"type":"Point","coordinates":[-0.023945,51.459916]},"properties":{"eventname":"hillyfields-juniors","EventLongName":"Hilly Fields junior parkrun","EventShortName":"Hilly Fields juniors","countrycode":97,"seriesid":2,"EventLocation":"Hilly Fields park"}},{"id":362,"type":"Feature","geometry":{"type":"Point","coordinates":[28.352306,-26.146747]},"properties":{"eventname":"ebotse","EventLongName":"Ebotse parkrun","EventShortName":"Ebotse","countrycode":85,"seriesid":1,"EventLocation":"Ebotse Golf and Country Estate"}},{"id":363,"type":"Feature","geometry":{"type":"Point","coordinates":[-0.473542,51.758909]},"properties":{"eventname":"gadebridge","EventLongName":"Gadebridge parkrun","EventShortName":"Gadebridge","countrycode":97,"seriesid":1,"EventLocation":"Gadebridge Park"}},{"id":364,"type":"Feature","geometry":{"type":"Point","coordinates":[149.073486,-35.234051]},"properties":{"eventname":"ginninderra","EventLongName":"Ginninderra parkrun","EventShortName":"Ginninderra","countrycode":3,"seriesid":1,"EventLocation":"John Knight Memorial Park"}},{"id":365,"type":"Feature","geometry":{"type":"Point","coordinates":[153.281709,-27.885247]},"properties":{"eventname":"coomera","EventLongName":"Coomera parkrun","EventShortName":"Coomera","countrycode":3,"seriesid":1,"EventLocation":"Tallowwood Park"}},{"id":366,"type":"Feature","geometry":{"type":"Point","coordinates":[-1.334453,50.865345]},"properties":{"eventname":"netleyabbey","EventLongName":"Netley Abbey parkrun","EventShortName":"Netley Abbey","countrycode":97,"seriesid":1,"EventLocation":"Royal Victoria Country Park"}},{"id":367,"type":"Feature","geometry":{"type":"Point","coordinates":[-1.865981,54.96663]},"properties":{"eventname":"prudhoeriverside-juniors","EventLongName":"Prudhoe Riverside junior parkrun","EventShortName":"Prudhoe Riverside juniors","countrycode":97,"seriesid":2,"EventLocation":"Tyne Riverside Country Park"}},{"id":368,"type":"Feature","geometry":{"type":"Point","coordinates":[-0.264145,51.948308]},"properties":{"eventname":"pinehill-juniors","EventLongName":"Pinehill junior parkrun","EventShortName":"Pinehill juniors","countrycode":97,"seriesid":2,"EventLocation":"Pinehill Park"}},{"id":369,"type":"Feature","geometry":{"type":"Point","coordinates":[27.949644,-32.988135]},"properties":{"eventname":"nahoonpoint","EventLongName":"Nahoon Point parkrun","EventShortName":"Nahoon Point","countrycode":85,"seriesid":1,"EventLocation":"Nahoon Point Nature Reserve"}},{"id":370,"type":"Feature","geometry":{"type":"Point","coordinates":[-2.056509,53.404476]},"properties":{"eventname":"marple","EventLongName":"Marple parkrun","EventShortName":"Marple","countrycode":97,"seriesid":1,"EventLocation":"Brabyns Park, Stockport"}},{"id":371,"type":"Feature","geometry":{"type":"Point","coordinates":[-6.648788,55.204638]},"properties":{"eventname":"portrush","EventLongName":"Portrush parkrun","EventShortName":"Portrush","countrycode":97,"seriesid":1,"EventLocation":"East Strand Beach, Portrush"}},{"id":372,"type":"Feature","geometry":{"type":"Point","coordinates":[-1.464657,53.338906]},"properties":{"eventname":"graves","EventLongName":"Graves parkrun","EventShortName":"Graves","countrycode":97,"seriesid":1,"EventLocation":"Graves Park, Sheffield"}},{"id":373,"type":"Feature","geometry":{"type":"Point","coordinates":[-6.162729,53.444487]},"properties":{"eventname":"malahide","EventLongName":"Malahide parkrun","EventShortName":"Malahide","countrycode":42,"seriesid":1,"EventLocation":"Malahide Castle grounds"}},{"id":374,"type":"Feature","geometry":{"type":"Point","coordinates":[-8.89884,51.617636]},"properties":{"eventname":"clonakilty","EventLongName":"Clonakilty parkrun","EventShortName":"Clonakilty","countrycode":42,"seriesid":1,"EventLocation":"The Show Grounds"}},{"id":375,"type":"Feature","geometry":{"type":"Point","coordinates":[-6.036816,54.516511]},"properties":{"eventname":"wallace","EventLongName":"Wallace parkrun, Lisburn","EventShortName":"Wallace","countrycode":97,"seriesid":1,"EventLocation":"Wallace Park"}},{"id":377,"type":"Feature","geometry":{"type":"Point","coordinates":[-0.175623,51.097]},"properties":{"eventname":"tilgate","EventLongName":"Tilgate parkrun","EventShortName":"Tilgate","countrycode":97,"seriesid":1,"EventLocation":"Tilgate Park, Crawley"}},{"id":378,"type":"Feature","geometry":{"type":"Point","coordinates":[0.046542,51.51176]},"properties":{"eventname":"beckton","EventLongName":"Beckton parkrun","EventShortName":"Beckton","countrycode":97,"seriesid":1,"EventLocation":"Beckton District Park South"}},{"id":379,"type":"Feature","geometry":{"type":"Point","coordinates":[-3.269548,51.781621]},"properties":{"eventname":"brynbach","EventLongName":"Bryn Bach parkrun","EventShortName":"Bryn Bach","countrycode":97,"seriesid":1,"EventLocation":"Parc Bryn Bach, Tredegar"}},{"id":380,"type":"Feature","geometry":{"type":"Point","coordinates":[-83.395811,42.429645]},"properties":{"eventname":"livonia","EventLongName":"Livonia parkrun","EventShortName":"Livonia","countrycode":98,"seriesid":1,"EventLocation":"Bicentennial Park, Livonia, MI, USA"}},{"id":381,"type":"Feature","geometry":{"type":"Point","coordinates":[-0.207922,51.234222]},"properties":{"eventname":"reigatepriory-juniors","EventLongName":"Reigate Priory junior parkrun","EventShortName":"Reigate Priory juniors","countrycode":97,"seriesid":2,"EventLocation":"Reigate Priory Park"}},{"id":382,"type":"Feature","geometry":{"type":"Point","coordinates":[-2.221555,53.77834]},"properties":{"eventname":"burnley","EventLongName":"Burnley parkrun","EventShortName":"Burnley","countrycode":97,"seriesid":1,"EventLocation":"Towneley Park, Burnley"}},{"id":383,"type":"Feature","geometry":{"type":"Point","coordinates":[18.480871,-33.959376]},"properties":{"eventname":"rondeboschcommon","EventLongName":"Rondebosch Common parkrun","EventShortName":"Rondebosch Common","countrycode":85,"seriesid":1,"EventLocation":"Rondebosch Common"}},{"id":384,"type":"Feature","geometry":{"type":"Point","coordinates":[-1.842366,54.858315]},"properties":{"eventname":"blackhill","EventLongName":"Blackhill parkrun","EventShortName":"Blackhill","countrycode":97,"seriesid":1,"EventLocation":"Blackhill and Consett Heritage Park"}},{"id":385,"type":"Feature","geometry":{"type":"Point","coordinates":[-1.563277,54.853983]},"properties":{"eventname":"riverside","EventLongName":"Riverside parkrun","EventShortName":"Riverside","countrycode":97,"seriesid":1,"EventLocation":"Riverside Park, Chester-le-Street"}},{"id":386,"type":"Feature","geometry":{"type":"Point","coordinates":[-6.386002,54.451093]},"properties":{"eventname":"citypark","EventLongName":"Citypark parkrun, Craigavon","EventShortName":"Citypark","countrycode":97,"seriesid":1,"EventLocation":"Citypark Park, Craigavon"}},{"id":387,"type":"Feature","geometry":{"type":"Point","coordinates":[-1.646275,53.688218]},"properties":{"eventname":"dewsbury","EventLongName":"Dewsbury parkrun","EventShortName":"Dewsbury","countrycode":97,"seriesid":1,"EventLocation":"Crow Nest Park, Dewsbury"}},{"id":389,"type":"Feature","geometry":{"type":"Point","coordinates":[-0.228223,51.556982]},"properties":{"eventname":"gladstone","EventLongName":"Gladstone parkrun","EventShortName":"Gladstone","countrycode":97,"seriesid":1,"EventLocation":"Gladstone Park, London"}},{"id":390,"type":"Feature","geometry":{"type":"Point","coordinates":[-0.372075,51.441168]},"properties":{"eventname":"crane","EventLongName":"Crane Park parkrun","EventShortName":"Crane Park","countrycode":97,"seriesid":1,"EventLocation":"Crane Park, Twickenham"}},{"id":391,"type":"Feature","geometry":{"type":"Point","coordinates":[-0.025019,51.460143]},"properties":{"eventname":"hillyfields","EventLongName":"Hilly Fields parkrun","EventShortName":"Hilly Fields","countrycode":97,"seriesid":1,"EventLocation":"Hilly Fields"}},{"id":392,"type":"Feature","geometry":{"type":"Point","coordinates":[-0.081024,51.484536]},"properties":{"eventname":"burgess","EventLongName":"Burgess parkrun","EventShortName":"Burgess","countrycode":97,"seriesid":1,"EventLocation":"Burgess Park"}},{"id":393,"type":"Feature","geometry":{"type":"Point","coordinates":[-1.287396,54.564846]},"properties":{"eventname":"teesbarrage","EventLongName":"Tees Barrage parkrun","EventShortName":"Tees Barrage","countrycode":97,"seriesid":1,"EventLocation":"Tees Barrage, Middlesbrough"}},{"id":394,"type":"Feature","geometry":{"type":"Point","coordinates":[-1.203561,54.53809]},"properties":{"eventname":"stewart","EventLongName":"Stewart parkrun, Middlesbrough","EventShortName":"Stewart","countrycode":97,"seriesid":1,"EventLocation":"Stewart Park, Middlesbrough"}},{"id":395,"type":"Feature","geometry":{"type":"Point","coordinates":[144.331179,-38.166457]},"properties":{"eventname":"balyangsanctuary","EventLongName":"Balyang Sanctuary parkrun","EventShortName":"Balyang Sanctuary","countrycode":3,"seriesid":1,"EventLocation":"Balyang Sanctuary"}},{"id":396,"type":"Feature","geometry":{"type":"Point","coordinates":[151.065488,-33.819767]},"properties":{"eventname":"parramatta","EventLongName":"Parramatta parkrun","EventShortName":"Parramatta","countrycode":3,"seriesid":1,"EventLocation":"George Kendell Riverside Park"}},{"id":397,"type":"Feature","geometry":{"type":"Point","coordinates":[115.881884,-31.950868]},"properties":{"eventname":"claisebrookcove","EventLongName":"Claisebrook Cove parkrun","EventShortName":"Claisebrook Cove","countrycode":3,"seriesid":1,"EventLocation":"Claisebrook Cove"}},